[{
  "_id": {
    "$oid": "6549035aa9503ce1646dcdca"
  },
  "restaurant_id": 3,
  "name": "KAZUMA  ",
  "japaneseName": "和馬",
  "station": "Sanjo",
  "firstCategory": "Izakaya (Tavern)",
  "secondCategory": "Japanese food (other)",
  "dinnerPrice": "￥3000～￥3999",
  "lunchPrice": "NA",
  "latitude": 35.00658257,
  "longitude": 135.7702467,
  "location": {
    "type": "Point",
    "coordinates": [
      135.7702467,
      35.00658257
    ]
  }
},
{
  "_id": {
    "$oid": "6549035aa9503ce1646dcdd9"
  },
  "restaurant_id": 18,
  "name": "Sakaean  ",
  "japaneseName": "さかえ庵",
  "station": "Karasuma",
  "firstCategory": "Izakaya (Tavern)",
  "secondCategory": "Nihonshu (Japanese sake)",
  "dinnerPrice": "￥2000～￥2999",
  "lunchPrice": " ～￥999",
  "latitude": 35.00468374,
  "longitude": 135.7624141,
  "location": {
    "type": "Point",
    "coordinates": [
      135.7624141,
      35.00468374
    ]
  }
},
{
  "_id": {
    "$oid": "6549035aa9503ce1646dcdce"
  },
  "restaurant_id": 7,
  "name": "Resort dining&bar HaLe  ",
  "japaneseName": "Resort dining&bar HaLe 河原町店",
  "station": "Sanjo",
  "firstCategory": "Italian",
  "secondCategory": "Bar",
  "dinnerPrice": "￥3000～￥3999",
  "lunchPrice": "￥1000～￥1999",
  "latitude": 35.00719471,
  "longitude": 135.7694681,
  "location": {
    "type": "Point",
    "coordinates": [
      135.7694681,
      35.00719471
    ]
  }
},
{
  "_id": {
    "$oid": "6549035aa9503ce1646dcdd0"
  },
  "restaurant_id": 9,
  "name": "Gayagaya  ",
  "japaneseName": "我家我家",
  "station": "Sanjo",
  "firstCategory": "Izakaya (Tavern)",
  "secondCategory": "Bar",
  "dinnerPrice": "￥3000～￥3999",
  "lunchPrice": "NA",
  "latitude": 35.00717416,
  "longitude": 135.7699678,
  "location": {
    "type": "Point",
    "coordinates": [
      135.7699678,
      35.00717416
    ]
  }
},
{
  "_id": {
    "$oid": "6549035aa9503ce1646dcdcb"
  },
  "restaurant_id": 4,
  "name": "okonomiyakiteppanyakimiki  ",
  "japaneseName": "お好み焼き 鉄板焼き 三喜",
  "station": "Tambaguchi",
  "firstCategory": "Okonomiyaki",
  "secondCategory": "Izakaya (Tavern)",
  "dinnerPrice": "￥3000～￥3999",
  "lunchPrice": "NA",
  "latitude": 34.99592443,
  "longitude": 135.7482665,
  "location": {
    "type": "Point",
    "coordinates": [
      135.7482665,
      34.99592443
    ]
  }
},
{
  "_id": {
    "$oid": "6549035aa9503ce1646dcdd3"
  },
  "restaurant_id": 12,
  "name": "Gionabesu  ",
  "japaneseName": "祇園 Abbesses",
  "station": "Gion Shijo",
  "firstCategory": "French",
  "secondCategory": "Italian",
  "dinnerPrice": "￥8000～￥9999",
  "lunchPrice": "￥6000～￥7999",
  "latitude": 35.0019537,
  "longitude": 135.7748213,
  "location": {
    "type": "Point",
    "coordinates": [
      135.7748213,
      35.0019537
    ]
  }
},
{
  "_id": {
    "$oid": "6549035aa9503ce1646dcddc"
  },
  "restaurant_id": 21,
  "name": "bejo-tamucho  ",
  "japaneseName": "ベジョータ ムチョ 室町店",
  "station": "Shijo",
  "firstCategory": "Spain",
  "secondCategory": "Izakaya (Tavern)",
  "dinnerPrice": "￥3000～￥3999",
  "lunchPrice": "NA",
  "latitude": 35.00138624,
  "longitude": 135.7579121,
  "location": {
    "type": "Point",
    "coordinates": [
      135.7579121,
      35.00138624
    ]
  }
},
{
  "_id": {
    "$oid": "6549035aa9503ce1646dcde7"
  },
  "restaurant_id": 32,
  "name": "Chizutakkarubikoshitsubaruvino  ",
  "japaneseName": "チーズタッカルビ×個室 バル・ヴィーノ",
  "station": "Sanjo",
  "firstCategory": "Izakaya (Tavern)",
  "secondCategory": "Dining bar",
  "dinnerPrice": "￥2000～￥2999",
  "lunchPrice": "NA",
  "latitude": 35.00738941,
  "longitude": 135.7693292,
  "location": {
    "type": "Point",
    "coordinates": [
      135.7693292,
      35.00738941
    ]
  }
},
{
  "_id": {
    "$oid": "6549035aa9503ce1646dcdf8"
  },
  "restaurant_id": 49,
  "name": "Banikuryourisemmontenumayarou  ",
  "japaneseName": "馬肉料理専門店　馬野郎",
  "station": "Kawaramachi",
  "firstCategory": "Yakiniku (BBQ Beef)",
  "secondCategory": "Shabu Shabu (Japanese Steamboat)",
  "dinnerPrice": "￥3000～￥3999",
  "lunchPrice": "NA",
  "latitude": 35.00479581,
  "longitude": 135.7702928,
  "location": {
    "type": "Point",
    "coordinates": [
      135.7702928,
      35.00479581
    ]
  }
},
{
  "_id": {
    "$oid": "6549035aa9503ce1646dce02"
  },
  "restaurant_id": 59,
  "name": "Yakinikudainingukinoe  ",
  "japaneseName": "焼肉ダイニング 甲",
  "station": "Kyoto Shiyakusho Mae",
  "firstCategory": "Yakiniku (BBQ Beef)",
  "secondCategory": "Korean cuisine",
  "dinnerPrice": "￥5000～￥5999",
  "lunchPrice": "NA",
  "latitude": 35.01226046,
  "longitude": 135.7641636,
  "location": {
    "type": "Point",
    "coordinates": [
      135.7641636,
      35.01226046
    ]
  }
},
{
  "_id": {
    "$oid": "6549035aa9503ce1646dce07"
  },
  "restaurant_id": 64,
  "name": "nikushokusakabagaru  ",
  "japaneseName": "肉食酒場 garu",
  "station": "Gion Shijo",
  "firstCategory": "Bar",
  "secondCategory": "Sumibiyaki",
  "dinnerPrice": "￥4000～￥4999",
  "lunchPrice": " ～￥999",
  "latitude": 35.00482165,
  "longitude": 135.7707395,
  "location": {
    "type": "Point",
    "coordinates": [
      135.7707395,
      35.00482165
    ]
  }
},
{
  "_id": {
    "$oid": "6549035aa9503ce1646dce08"
  },
  "restaurant_id": 65,
  "name": "furenchidainingutoppuobukyouto  ",
  "japaneseName": "フレンチダイニング トップ オブ キョウト",
  "station": "Kyoto",
  "firstCategory": "French",
  "secondCategory": "Restaurants (other)",
  "dinnerPrice": "￥10000～￥14999",
  "lunchPrice": "￥5000～￥5999",
  "latitude": 34.9861625,
  "longitude": 135.7525049,
  "location": {
    "type": "Point",
    "coordinates": [
      135.7525049,
      34.9861625
    ]
  }
},
{
  "_id": {
    "$oid": "6549035aa9503ce1646dce18"
  },
  "restaurant_id": 81,
  "name": "BELLOTA concha  ",
  "japaneseName": "ベジョータコンチャ 富小路店",
  "station": "Kawaramachi",
  "firstCategory": "Spain",
  "secondCategory": "Italian",
  "dinnerPrice": "￥3000～￥3999",
  "lunchPrice": "￥1000～￥1999",
  "latitude": 35.00282871,
  "longitude": 135.7648308,
  "location": {
    "type": "Point",
    "coordinates": [
      135.7648308,
      35.00282871
    ]
  }
},
{
  "_id": {
    "$oid": "6549035aa9503ce1646dce1b"
  },
  "restaurant_id": 84,
  "name": "Sushidokoroima  ",
  "japaneseName": "寿し処 今",
  "station": "Katsura",
  "firstCategory": "Sushi",
  "secondCategory": "Seafood",
  "dinnerPrice": "￥6000～￥7999",
  "lunchPrice": "NA",
  "latitude": 34.97985049,
  "longitude": 135.7101313,
  "location": {
    "type": "Point",
    "coordinates": [
      135.7101313,
      34.97985049
    ]
  }
},
{
  "_id": {
    "$oid": "6549035aa9503ce1646dce22"
  },
  "restaurant_id": 91,
  "name": "Momojirou  ",
  "japaneseName": "ももじろう 師団街道龍大前店",
  "station": "Fukakusa",
  "firstCategory": "Izakaya (Tavern)",
  "secondCategory": "Chanko Nabe (Sumo Wrestlers Hot Pot)",
  "dinnerPrice": "￥3000～￥3999",
  "lunchPrice": "NA",
  "latitude": 34.96281665,
  "longitude": 135.7680275,
  "location": {
    "type": "Point",
    "coordinates": [
      135.7680275,
      34.96281665
    ]
  }
},
{
  "_id": {
    "$oid": "6549035aa9503ce1646dce26"
  },
  "restaurant_id": 95,
  "name": "rino  ",
  "japaneseName": "Lino",
  "station": "Karasuma Oike",
  "firstCategory": "Italian",
  "secondCategory": "Pasta",
  "dinnerPrice": "￥6000～￥7999",
  "lunchPrice": "￥1000～￥1999",
  "latitude": 35.01314247,
  "longitude": 135.7573791,
  "location": {
    "type": "Point",
    "coordinates": [
      135.7573791,
      35.01314247
    ]
  }
},
{
  "_id": {
    "$oid": "6549035aa9503ce1646dce32"
  },
  "restaurant_id": 107,
  "name": "Kushiyakimanten  ",
  "japaneseName": "串焼き満天 四条烏丸店",
  "station": "Karasuma",
  "firstCategory": "Yakitori (Grilled chicken)",
  "secondCategory": "Izakaya (Tavern)",
  "dinnerPrice": "￥3000～￥3999",
  "lunchPrice": "NA",
  "latitude": 35.00431237,
  "longitude": 135.7610598,
  "location": {
    "type": "Point",
    "coordinates": [
      135.7610598,
      35.00431237
    ]
  }
},
{
  "_id": {
    "$oid": "6549035aa9503ce1646dce38"
  },
  "restaurant_id": 113,
  "name": "Gionramburu  ",
  "japaneseName": "祇園らんぶる",
  "station": "Gion Shijo",
  "firstCategory": "Kyoto Cuisine",
  "secondCategory": "Creative cuisine",
  "dinnerPrice": "￥5000～￥5999",
  "lunchPrice": "￥3000～￥3999",
  "latitude": 35.00311636,
  "longitude": 135.7753181,
  "location": {
    "type": "Point",
    "coordinates": [
      135.7753181,
      35.00311636
    ]
  }
},
{
  "_id": {
    "$oid": "6549035aa9503ce1646dce3a"
  },
  "restaurant_id": 115,
  "name": "gyouzaba-anzukko  ",
  "japaneseName": "GYOZA BAR 杏っ子",
  "station": "Kyoto Shiyakusho Mae",
  "firstCategory": "Dumplings",
  "secondCategory": "Chinese",
  "dinnerPrice": "￥2000～￥2999",
  "lunchPrice": "NA",
  "latitude": 35.00922116,
  "longitude": 135.769588,
  "location": {
    "type": "Point",
    "coordinates": [
      135.769588,
      35.00922116
    ]
  }
},
{
  "_id": {
    "$oid": "6549035aa9503ce1646dce4a"
  },
  "restaurant_id": 131,
  "name": "Uroko  ",
  "japaneseName": "鱗",
  "station": "Kawaramachi",
  "firstCategory": "Izakaya (Tavern)",
  "secondCategory": "Japanese food (other)",
  "dinnerPrice": "￥3000～￥3999",
  "lunchPrice": "NA",
  "latitude": 35.00445418,
  "longitude": 135.770264,
  "location": {
    "type": "Point",
    "coordinates": [
      135.770264,
      35.00445418
    ]
  }
},
{
  "_id": {
    "$oid": "6549035aa9503ce1646dce58"
  },
  "restaurant_id": 145,
  "name": "Mayonakashokudouchoujuugigarokkaku  ",
  "japaneseName": "真夜中食堂 鳥獣戯画 六角",
  "station": "Karasuma Oike",
  "firstCategory": "Izakaya (Tavern)",
  "secondCategory": "Fowl",
  "dinnerPrice": "￥2000～￥2999",
  "lunchPrice": "NA",
  "latitude": 35.00771635,
  "longitude": 135.7554773,
  "location": {
    "type": "Point",
    "coordinates": [
      135.7554773,
      35.00771635
    ]
  }
},
{
  "_id": {
    "$oid": "6549035aa9503ce1646dce59"
  },
  "restaurant_id": 146,
  "name": "Bankettonishiki  ",
  "japaneseName": "ばんけっと Nishiki.",
  "station": "Karasuma",
  "firstCategory": "Japanese food (other)",
  "secondCategory": "Izakaya (Tavern)",
  "dinnerPrice": "￥4000～￥4999",
  "lunchPrice": "NA",
  "latitude": 35.00513934,
  "longitude": 135.7605384,
  "location": {
    "type": "Point",
    "coordinates": [
      135.7605384,
      35.00513934
    ]
  }
},
{
  "_id": {
    "$oid": "6549035aa9503ce1646dce5e"
  },
  "restaurant_id": 151,
  "name": "STRADA  ",
  "japaneseName": "リストランテ ストラーダ",
  "station": "Kyoto Shiyakusho Mae",
  "firstCategory": "Italian",
  "secondCategory": "NA",
  "dinnerPrice": "￥6000～￥7999",
  "lunchPrice": "￥2000～￥2999",
  "latitude": 35.01117003,
  "longitude": 135.7642834,
  "location": {
    "type": "Point",
    "coordinates": [
      135.7642834,
      35.01117003
    ]
  }
},
{
  "_id": {
    "$oid": "6549035aa9503ce1646dce64"
  },
  "restaurant_id": 157,
  "name": "Ryouma  ",
  "japaneseName": "龍馬 三条烏丸",
  "station": "Karasuma Oike",
  "firstCategory": "Izakaya (Tavern)",
  "secondCategory": "Seafood",
  "dinnerPrice": "￥3000～￥3999",
  "lunchPrice": "NA",
  "latitude": 35.00856997,
  "longitude": 135.7608254,
  "location": {
    "type": "Point",
    "coordinates": [
      135.7608254,
      35.00856997
    ]
  }
},
{
  "_id": {
    "$oid": "6549035aa9503ce1646dce72"
  },
  "restaurant_id": 171,
  "name": "Sumibikushiyakitsujiya  ",
  "japaneseName": "つじや 四条御幸町店",
  "station": "Kawaramachi",
  "firstCategory": "Yakitori (Grilled chicken)",
  "secondCategory": "Izakaya (Tavern)",
  "dinnerPrice": "￥3000～￥3999",
  "lunchPrice": "NA",
  "latitude": 35.00295927,
  "longitude": 135.7662847,
  "location": {
    "type": "Point",
    "coordinates": [
      135.7662847,
      35.00295927
    ]
  }
},
{
  "_id": {
    "$oid": "6549035aa9503ce1646dce7d"
  },
  "restaurant_id": 182,
  "name": "zasera-kyouto  ",
  "japaneseName": "The Cellar KYOTO",
  "station": "Kyoto Shiyakusho Mae",
  "firstCategory": "Dining bar",
  "secondCategory": "Kappo (Traditional Japanese)",
  "dinnerPrice": "￥6000～￥7999",
  "lunchPrice": "NA",
  "latitude": 35.00936892,
  "longitude": 135.7694105,
  "location": {
    "type": "Point",
    "coordinates": [
      135.7694105,
      35.00936892
    ]
  }
},
{
  "_id": {
    "$oid": "6549035aa9503ce1646dce86"
  },
  "restaurant_id": 191,
  "name": "Kyoutoyamanashiyakitorikanazawa  ",
  "japaneseName": "京都山科 焼鳥 かなざわ",
  "station": "Keihan Yamashina",
  "firstCategory": "Izakaya (Tavern)",
  "secondCategory": "Yakitori (Grilled chicken)",
  "dinnerPrice": "￥3000～￥3999",
  "lunchPrice": "NA",
  "latitude": 34.99133142,
  "longitude": 135.818192,
  "location": {
    "type": "Point",
    "coordinates": [
      135.818192,
      34.99133142
    ]
  }
},
{
  "_id": {
    "$oid": "6549035aa9503ce1646dce91"
  },
  "restaurant_id": 202,
  "name": "Furenchibado  ",
  "japaneseName": "フレンチバード",
  "station": "Kyoto Shiyakusho Mae",
  "firstCategory": "French",
  "secondCategory": "Bistro",
  "dinnerPrice": "￥4000～￥4999",
  "lunchPrice": "￥1000～￥1999",
  "latitude": 35.01369227,
  "longitude": 135.7653087,
  "location": {
    "type": "Point",
    "coordinates": [
      135.7653087,
      35.01369227
    ]
  }
},
{
  "_id": {
    "$oid": "6549035aa9503ce1646dce94"
  },
  "restaurant_id": 205,
  "name": "Sorekaraayanokouji  ",
  "japaneseName": "それから 綾小路",
  "station": "Shijo",
  "firstCategory": "Izakaya (Tavern)",
  "secondCategory": "Japanese food (other)",
  "dinnerPrice": "￥4000～￥4999",
  "lunchPrice": "NA",
  "latitude": 35.00244591,
  "longitude": 135.7613851,
  "location": {
    "type": "Point",
    "coordinates": [
      135.7613851,
      35.00244591
    ]
  }
},
{
  "_id": {
    "$oid": "6549035aa9503ce1646dce9c"
  },
  "restaurant_id": 213,
  "name": "Nagomijun  ",
  "japaneseName": "和 旬゛",
  "station": "Shijo",
  "firstCategory": "Kyoto Cuisine",
  "secondCategory": "Kaiseki (Traditional Japanese)",
  "dinnerPrice": "￥6000～￥7999",
  "lunchPrice": "￥3000～￥3999",
  "latitude": 35.00489414,
  "longitude": 135.7548028,
  "location": {
    "type": "Point",
    "coordinates": [
      135.7548028,
      35.00489414
    ]
  }
},
{
  "_id": {
    "$oid": "6549035aa9503ce1646dce9d"
  },
  "restaurant_id": 214,
  "name": "Hiroya  ",
  "japaneseName": "ひろや",
  "station": "Kurama",
  "firstCategory": "Kaiseki (Traditional Japanese)",
  "secondCategory": "Kyoto Cuisine",
  "dinnerPrice": "￥15000～￥19999",
  "lunchPrice": "￥15000～￥19999",
  "latitude": 35.12242459,
  "longitude": 135.7634156,
  "location": {
    "type": "Point",
    "coordinates": [
      135.7634156,
      35.12242459
    ]
  }
},
{
  "_id": {
    "$oid": "6549035aa9503ce1646dcea0"
  },
  "restaurant_id": 217,
  "name": "Miho  ",
  "japaneseName": "味峯 四条壬生店",
  "station": "Shijo Omiya",
  "firstCategory": "Izakaya (Tavern)",
  "secondCategory": "Okinawan Cuisine",
  "dinnerPrice": "￥3000～￥3999",
  "lunchPrice": "NA",
  "latitude": 35.00341411,
  "longitude": 135.7435729,
  "location": {
    "type": "Point",
    "coordinates": [
      135.7435729,
      35.00341411
    ]
  }
},
{
  "_id": {
    "$oid": "6549035aa9503ce1646dcea3"
  },
  "restaurant_id": 220,
  "name": "Sousakukoshitsuizakayasugiurakyoutoekimaeshichijouten  ",
  "japaneseName": "創作個室居酒屋すぎうら 京都駅前七条店",
  "station": "Shichijo",
  "firstCategory": "Izakaya (Tavern)",
  "secondCategory": "Seafood",
  "dinnerPrice": "￥4000～￥4999",
  "lunchPrice": "NA",
  "latitude": 34.98945148,
  "longitude": 135.7620021,
  "location": {
    "type": "Point",
    "coordinates": [
      135.7620021,
      34.98945148
    ]
  }
},
{
  "_id": {
    "$oid": "6549035aa9503ce1646dceaf"
  },
  "restaurant_id": 232,
  "name": "Bairan  ",
  "japaneseName": "梅蘭 イオンモール京都桂川店",
  "station": "Katsuragawa",
  "firstCategory": "Chinese",
  "secondCategory": "Dim sum",
  "dinnerPrice": "￥1000～￥1999",
  "lunchPrice": " ～￥999",
  "latitude": 34.96386603,
  "longitude": 135.7069295,
  "location": {
    "type": "Point",
    "coordinates": [
      135.7069295,
      34.96386603
    ]
  }
},
{
  "_id": {
    "$oid": "6549035aa9503ce1646dcec2"
  },
  "restaurant_id": 251,
  "name": "Ginnan  ",
  "japaneseName": "ぎんなん",
  "station": "Kyoto",
  "firstCategory": "Izakaya (Tavern)",
  "secondCategory": "Tofu",
  "dinnerPrice": "￥4000～￥4999",
  "lunchPrice": "NA",
  "latitude": 34.98938754,
  "longitude": 135.7588273,
  "location": {
    "type": "Point",
    "coordinates": [
      135.7588273,
      34.98938754
    ]
  }
},
{
  "_id": {
    "$oid": "6549035aa9503ce1646dcec4"
  },
  "restaurant_id": 253,
  "name": "konken  ",
  "japaneseName": "コンケン",
  "station": "Kawaramachi",
  "firstCategory": "Thailand cooking",
  "secondCategory": "Izakaya (Tavern)",
  "dinnerPrice": "￥1000～￥1999",
  "lunchPrice": " ～￥999",
  "latitude": 35.00479548,
  "longitude": 135.7672726,
  "location": {
    "type": "Point",
    "coordinates": [
      135.7672726,
      35.00479548
    ]
  }
},
{
  "_id": {
    "$oid": "6549035aa9503ce1646dcec7"
  },
  "restaurant_id": 256,
  "name": "Idutsuya  ",
  "japaneseName": "いづつ家 三条店",
  "station": "Karasuma Oike",
  "firstCategory": "Yakiniku (BBQ Beef)",
  "secondCategory": "Horumon (BBQ Offel)",
  "dinnerPrice": "￥5000～￥5999",
  "lunchPrice": "NA",
  "latitude": 35.00947992,
  "longitude": 135.7635407,
  "location": {
    "type": "Point",
    "coordinates": [
      135.7635407,
      35.00947992
    ]
  }
},
{
  "_id": {
    "$oid": "6549035aa9503ce1646dceca"
  },
  "restaurant_id": 259,
  "name": "ITALIAN BAR MODERNTIMES  ",
  "japaneseName": "イタリアンバール モダンタイムス",
  "station": "Marutamachi",
  "firstCategory": "Italian",
  "secondCategory": "Pizza",
  "dinnerPrice": "￥2000～￥2999",
  "lunchPrice": " ～￥999",
  "latitude": 35.01342966,
  "longitude": 135.7571686,
  "location": {
    "type": "Point",
    "coordinates": [
      135.7571686,
      35.01342966
    ]
  }
},
{
  "_id": {
    "$oid": "6549035aa9503ce1646dced6"
  },
  "restaurant_id": 271,
  "name": "Kitayama  ",
  "japaneseName": "きた山 本店",
  "station": "Gion Shijo",
  "firstCategory": "Hot Pot (other)",
  "secondCategory": "Kyoto Cuisine",
  "dinnerPrice": "￥5000～￥5999",
  "lunchPrice": "￥2000～￥2999",
  "latitude": 35.00297557,
  "longitude": 135.7707829,
  "location": {
    "type": "Point",
    "coordinates": [
      135.7707829,
      35.00297557
    ]
  }
},
{
  "_id": {
    "$oid": "6549035aa9503ce1646dcedb"
  },
  "restaurant_id": 276,
  "name": "Kyoutoyakitoriseisakujo  ",
  "japaneseName": "京都焼鳥製作所",
  "station": "Kawaramachi",
  "firstCategory": "Yakitori (Grilled chicken)",
  "secondCategory": "Fowl",
  "dinnerPrice": "￥3000～￥3999",
  "lunchPrice": "NA",
  "latitude": 35.00255483,
  "longitude": 135.7661487,
  "location": {
    "type": "Point",
    "coordinates": [
      135.7661487,
      35.00255483
    ]
  }
},
{
  "_id": {
    "$oid": "6549035aa9503ce1646dcedd"
  },
  "restaurant_id": 278,
  "name": "Toriasa  ",
  "japaneseName": "鳥あさ",
  "station": "Karasuma",
  "firstCategory": "Izakaya (Tavern)",
  "secondCategory": "Yakitori (Grilled chicken)",
  "dinnerPrice": "￥3000～￥3999",
  "lunchPrice": " ～￥999",
  "latitude": 35.00407349,
  "longitude": 135.7601152,
  "location": {
    "type": "Point",
    "coordinates": [
      135.7601152,
      35.00407349
    ]
  }
},
{
  "_id": {
    "$oid": "6549035aa9503ce1646dcee0"
  },
  "restaurant_id": 281,
  "name": "gyokouchokusoukaisensakabaanji  ",
  "japaneseName": "漁港直送 海鮮酒場 あんじ 麩屋町綾小路店",
  "station": "Kawaramachi",
  "firstCategory": "Izakaya (Tavern)",
  "secondCategory": "Seafood",
  "dinnerPrice": "￥3000～￥3999",
  "lunchPrice": "NA",
  "latitude": 35.00257736,
  "longitude": 135.7656528,
  "location": {
    "type": "Point",
    "coordinates": [
      135.7656528,
      35.00257736
    ]
  }
},
{
  "_id": {
    "$oid": "6549035aa9503ce1646dcee6"
  },
  "restaurant_id": 287,
  "name": "Yudoufutakemura  ",
  "japaneseName": "湯どうふ 竹むら",
  "station": "Arashiyama",
  "firstCategory": "Tofu",
  "secondCategory": "Yuba",
  "dinnerPrice": "￥3000～￥3999",
  "lunchPrice": "￥3000～￥3999",
  "latitude": 35.01748616,
  "longitude": 135.6768201,
  "location": {
    "type": "Point",
    "coordinates": [
      135.6768201,
      35.01748616
    ]
  }
},
{
  "_id": {
    "$oid": "6549035aa9503ce1646dcee7"
  },
  "restaurant_id": 288,
  "name": "ajiromanishigamatei  ",
  "japaneseName": "味浪漫いしがま亭",
  "station": "Gion Shijo",
  "firstCategory": "Izakaya (Tavern)",
  "secondCategory": "Kyoto Cuisine",
  "dinnerPrice": "￥4000～￥4999",
  "lunchPrice": "￥1000～￥1999",
  "latitude": 35.00212499,
  "longitude": 135.7703708,
  "location": {
    "type": "Point",
    "coordinates": [
      135.7703708,
      35.00212499
    ]
  }
},
{
  "_id": {
    "$oid": "6549035aa9503ce1646dcee8"
  },
  "restaurant_id": 289,
  "name": "Giombansankyoushoku  ",
  "japaneseName": "祇園 晩餐 京色",
  "station": "Gion Shijo",
  "firstCategory": "Izakaya (Tavern)",
  "secondCategory": "Tempura",
  "dinnerPrice": "￥5000～￥5999",
  "lunchPrice": "NA",
  "latitude": 35.00474394,
  "longitude": 135.7737945,
  "location": {
    "type": "Point",
    "coordinates": [
      135.7737945,
      35.00474394
    ]
  }
},
{
  "_id": {
    "$oid": "6549035aa9503ce1646dceed"
  },
  "restaurant_id": 294,
  "name": "Kandumebaruamichi  ",
  "japaneseName": "缶詰BAL Amici",
  "station": "Karasuma",
  "firstCategory": "Bar",
  "secondCategory": "Izakaya (Tavern)",
  "dinnerPrice": "￥3000～￥3999",
  "lunchPrice": " ～￥999",
  "latitude": 35.00635538,
  "longitude": 135.7549885,
  "location": {
    "type": "Point",
    "coordinates": [
      135.7549885,
      35.00635538
    ]
  }
},
{
  "_id": {
    "$oid": "6549035aa9503ce1646dcef0"
  },
  "restaurant_id": 297,
  "name": "Yakinikumarutomi  ",
  "japaneseName": "焼肉まる富 四条河原町店",
  "station": "Kawaramachi",
  "firstCategory": "Yakiniku (BBQ Beef)",
  "secondCategory": "Izakaya (Tavern)",
  "dinnerPrice": "￥4000～￥4999",
  "lunchPrice": "￥1000～￥1999",
  "latitude": 35.0035826,
  "longitude": 135.769831,
  "location": {
    "type": "Point",
    "coordinates": [
      135.769831,
      35.0035826
    ]
  }
},
{
  "_id": {
    "$oid": "6549035aa9503ce1646dcef7"
  },
  "restaurant_id": 304,
  "name": "itaria-nasagura  ",
  "japaneseName": "italiana SAGRA",
  "station": "Gion Shijo",
  "firstCategory": "Italian",
  "secondCategory": "Wine bar",
  "dinnerPrice": "￥8000～￥9999",
  "lunchPrice": "￥3000～￥3999",
  "latitude": 35.00453502,
  "longitude": 135.7711453,
  "location": {
    "type": "Point",
    "coordinates": [
      135.7711453,
      35.00453502
    ]
  }
},
{
  "_id": {
    "$oid": "6549035aa9503ce1646dcef9"
  },
  "restaurant_id": 306,
  "name": "Bansankyoushoku  ",
  "japaneseName": "BANSAN 京色",
  "station": "Karasuma",
  "firstCategory": "Yakitori (Grilled chicken)",
  "secondCategory": "Izakaya (Tavern)",
  "dinnerPrice": "￥3000～￥3999",
  "lunchPrice": "NA",
  "latitude": 35.00408133,
  "longitude": 135.7638407,
  "location": {
    "type": "Point",
    "coordinates": [
      135.7638407,
      35.00408133
    ]
  }
},
{
  "_id": {
    "$oid": "6549035aa9503ce1646dcf0e"
  },
  "restaurant_id": 327,
  "name": "zeppinryokuchadashishabunoomiseiemon  ",
  "japaneseName": "絶品 緑茶だししゃぶのお店 煎右衛門",
  "station": "Kyoto",
  "firstCategory": "Izakaya (Tavern)",
  "secondCategory": "Japanese food (other)",
  "dinnerPrice": "￥3000～￥3999",
  "lunchPrice": "NA",
  "latitude": 34.98940757,
  "longitude": 135.7608544,
  "location": {
    "type": "Point",
    "coordinates": [
      135.7608544,
      34.98940757
    ]
  }
},
{
  "_id": {
    "$oid": "6549035aa9503ce1646dcf1e"
  },
  "restaurant_id": 343,
  "name": "Tajimaya  ",
  "japaneseName": "但馬屋 京都ヨドバシ店",
  "station": "Kyoto",
  "firstCategory": "Shabu Shabu (Japanese Steamboat)",
  "secondCategory": "Sukiyaki",
  "dinnerPrice": "￥2000～￥2999",
  "lunchPrice": " ～￥999",
  "latitude": 34.98808435,
  "longitude": 135.7590418,
  "location": {
    "type": "Point",
    "coordinates": [
      135.7590418,
      34.98808435
    ]
  }
},
{
  "_id": {
    "$oid": "6549035aa9503ce1646dcf2c"
  },
  "restaurant_id": 357,
  "name": "kyoumachiyaitarianronkusu  ",
  "japaneseName": "京町家イタリアンろんくす",
  "station": "Kawaramachi",
  "firstCategory": "Italian",
  "secondCategory": "Sumibiyaki",
  "dinnerPrice": "￥5000～￥5999",
  "lunchPrice": "￥2000～￥2999",
  "latitude": 35.00032122,
  "longitude": 135.7661754,
  "location": {
    "type": "Point",
    "coordinates": [
      135.7661754,
      35.00032122
    ]
  }
},
{
  "_id": {
    "$oid": "6549035aa9503ce1646dcf30"
  },
  "restaurant_id": 361,
  "name": "Osakekafepuchipuchi  ",
  "japaneseName": "おさけcafe petit * petit",
  "station": "Kawaramachi",
  "firstCategory": "Nihonshu (Japanese sake)",
  "secondCategory": "Cafe",
  "dinnerPrice": "￥2000～￥2999",
  "lunchPrice": "NA",
  "latitude": 35.00658194,
  "longitude": 135.766187,
  "location": {
    "type": "Point",
    "coordinates": [
      135.766187,
      35.00658194
    ]
  }
},
{
  "_id": {
    "$oid": "6549035aa9503ce1646dcf3e"
  },
  "restaurant_id": 375,
  "name": "Itariankuatoro  ",
  "japaneseName": "ITALIAN QUATRO 京都駅前店",
  "station": "Kyoto",
  "firstCategory": "Italian",
  "secondCategory": "NA",
  "dinnerPrice": "￥3000～￥3999",
  "lunchPrice": "￥1000～￥1999",
  "latitude": 34.98743021,
  "longitude": 135.7565487,
  "location": {
    "type": "Point",
    "coordinates": [
      135.7565487,
      34.98743021
    ]
  }
},
{
  "_id": {
    "$oid": "6549035aa9503ce1646dcf43"
  },
  "restaurant_id": 380,
  "name": "Eijuan  ",
  "japaneseName": "栄寿庵",
  "station": "Kyoto",
  "firstCategory": "Kyoto Cuisine",
  "secondCategory": "Kaiseki (Traditional Japanese)",
  "dinnerPrice": "￥5000～￥5999",
  "lunchPrice": "￥2000～￥2999",
  "latitude": 34.98689441,
  "longitude": 135.7549919,
  "location": {
    "type": "Point",
    "coordinates": [
      135.7549919,
      34.98689441
    ]
  }
},
{
  "_id": {
    "$oid": "6549035aa9503ce1646dcf48"
  },
  "restaurant_id": 385,
  "name": "Iharada  ",
  "japaneseName": "いはら田",
  "station": "Tambaguchi",
  "firstCategory": "Kyoto Cuisine",
  "secondCategory": "Kaiseki (Traditional Japanese)",
  "dinnerPrice": "￥10000～￥14999",
  "lunchPrice": "NA",
  "latitude": 34.99053049,
  "longitude": 135.7322121,
  "location": {
    "type": "Point",
    "coordinates": [
      135.7322121,
      34.99053049
    ]
  }
},
{
  "_id": {
    "$oid": "6549035aa9503ce1646dcf49"
  },
  "restaurant_id": 386,
  "name": "gionkurashita  ",
  "japaneseName": "祇園 くらした",
  "station": "Gion Shijo",
  "firstCategory": "Kyoto Cuisine",
  "secondCategory": "Kaiseki (Traditional Japanese)",
  "dinnerPrice": "￥10000～￥14999",
  "lunchPrice": "￥3000～￥3999",
  "latitude": 35.00242422,
  "longitude": 135.7756503,
  "location": {
    "type": "Point",
    "coordinates": [
      135.7756503,
      35.00242422
    ]
  }
},
{
  "_id": {
    "$oid": "6549035aa9503ce1646dcf4c"
  },
  "restaurant_id": 389,
  "name": "Karibunoutage  ",
  "japaneseName": "カリブの宴",
  "station": "Okubo",
  "firstCategory": "Yakitori (Grilled chicken)",
  "secondCategory": "Kushi-age (Fried Skewer)",
  "dinnerPrice": "￥4000～￥4999",
  "lunchPrice": "NA",
  "latitude": 34.87262814,
  "longitude": 135.7768822,
  "location": {
    "type": "Point",
    "coordinates": [
      135.7768822,
      34.87262814
    ]
  }
},
{
  "_id": {
    "$oid": "6549035aa9503ce1646dcf52"
  },
  "restaurant_id": 395,
  "name": "Zakicchinsaruvatorekuomo  ",
  "japaneseName": "ザ キッチン サルヴァトーレ クオモ 京都",
  "station": "Kyoto",
  "firstCategory": "Italian",
  "secondCategory": "Cafe",
  "dinnerPrice": "￥3000～￥3999",
  "lunchPrice": "￥1000～￥1999",
  "latitude": 34.98585234,
  "longitude": 135.757424,
  "location": {
    "type": "Point",
    "coordinates": [
      135.757424,
      34.98585234
    ]
  }
},
{
  "_id": {
    "$oid": "6549035aa9503ce1646dcf54"
  },
  "restaurant_id": 397,
  "name": "Kawamuraryourihei  ",
  "japaneseName": "川村料理平 御幸町店",
  "station": "Kawaramachi",
  "firstCategory": "Izakaya (Tavern)",
  "secondCategory": "Japanese food (other)",
  "dinnerPrice": "￥3000～￥3999",
  "lunchPrice": "￥1000～￥1999",
  "latitude": 35.00525403,
  "longitude": 135.7662821,
  "location": {
    "type": "Point",
    "coordinates": [
      135.7662821,
      35.00525403
    ]
  }
},
{
  "_id": {
    "$oid": "6549035aa9503ce1646dcf55"
  },
  "restaurant_id": 398,
  "name": "Kyoutokimurayahonten  ",
  "japaneseName": "京都木村屋本店",
  "station": "Kyoto",
  "firstCategory": "Izakaya (Tavern)",
  "secondCategory": "Motsu Nabe (Offel Hot Pot)",
  "dinnerPrice": "￥3000～￥3999",
  "lunchPrice": "￥1000～￥1999",
  "latitude": 34.98605931,
  "longitude": 135.7605718,
  "location": {
    "type": "Point",
    "coordinates": [
      135.7605718,
      34.98605931
    ]
  }
},
{
  "_id": {
    "$oid": "6549035aa9503ce1646dcf5a"
  },
  "restaurant_id": 403,
  "name": "THE ROCKIN' HEARTS  ",
  "japaneseName": "ザ・ロッキンハーツ",
  "station": "Uji",
  "firstCategory": "Dining bar",
  "secondCategory": "Curry rice",
  "dinnerPrice": "￥1000～￥1999",
  "lunchPrice": " ～￥999",
  "latitude": 34.88969075,
  "longitude": 135.8010081,
  "location": {
    "type": "Point",
    "coordinates": [
      135.8010081,
      34.88969075
    ]
  }
},
{
  "_id": {
    "$oid": "6549035aa9503ce1646dcf5d"
  },
  "restaurant_id": 406,
  "name": "Baruagiyao  ",
  "japaneseName": "バル agiyao",
  "station": "Gojo",
  "firstCategory": "Bar",
  "secondCategory": "Seafood",
  "dinnerPrice": "￥5000～￥5999",
  "lunchPrice": "NA",
  "latitude": 34.99662708,
  "longitude": 135.7611651,
  "location": {
    "type": "Point",
    "coordinates": [
      135.7611651,
      34.99662708
    ]
  }
},
{
  "_id": {
    "$oid": "6549035aa9503ce1646dcf5e"
  },
  "restaurant_id": 407,
  "name": "Danieruzusore  ",
  "japaneseName": "ダニエルズソーレ",
  "station": "Karasuma",
  "firstCategory": "Italian",
  "secondCategory": "Pizza",
  "dinnerPrice": "￥3000～￥3999",
  "lunchPrice": "￥1000～￥1999",
  "latitude": 35.00545311,
  "longitude": 135.7627107,
  "location": {
    "type": "Point",
    "coordinates": [
      135.7627107,
      35.00545311
    ]
  }
},
{
  "_id": {
    "$oid": "6549035aa9503ce1646dcf67"
  },
  "restaurant_id": 416,
  "name": "yakinikuyaruki  ",
  "japaneseName": "焼肉やる気 西大路五条店",
  "station": "Saiin",
  "firstCategory": "Yakiniku (BBQ Beef)",
  "secondCategory": "Izakaya (Tavern)",
  "dinnerPrice": "￥2000～￥2999",
  "lunchPrice": "NA",
  "latitude": 34.99775145,
  "longitude": 135.7319145,
  "location": {
    "type": "Point",
    "coordinates": [
      135.7319145,
      34.99775145
    ]
  }
},
{
  "_id": {
    "$oid": "6549035aa9503ce1646dcf69"
  },
  "restaurant_id": 418,
  "name": "Aburiya  ",
  "japaneseName": "焙屋",
  "station": "Nishikyogoku",
  "firstCategory": "Yakiniku (BBQ Beef)",
  "secondCategory": "Izakaya (Tavern)",
  "dinnerPrice": "￥4000～￥4999",
  "lunchPrice": "NA",
  "latitude": 35.00035775,
  "longitude": 135.7106983,
  "location": {
    "type": "Point",
    "coordinates": [
      135.7106983,
      35.00035775
    ]
  }
},
{
  "_id": {
    "$oid": "6549035aa9503ce1646dcf70"
  },
  "restaurant_id": 425,
  "name": "Kyoutosakabaakamaru  ",
  "japaneseName": "京都酒場赤まる",
  "station": "Omiya",
  "firstCategory": "Izakaya (Tavern)",
  "secondCategory": "NA",
  "dinnerPrice": "￥3000～￥3999",
  "lunchPrice": "NA",
  "latitude": 35.00229191,
  "longitude": 135.7542582,
  "location": {
    "type": "Point",
    "coordinates": [
      135.7542582,
      35.00229191
    ]
  }
},
{
  "_id": {
    "$oid": "6549035aa9503ce1646dcf77"
  },
  "restaurant_id": 432,
  "name": "Rakusenrou  ",
  "japaneseName": "楽仙樓",
  "station": "Karasuma",
  "firstCategory": "Chinese",
  "secondCategory": "Izakaya (Tavern)",
  "dinnerPrice": "￥2000～￥2999",
  "lunchPrice": " ～￥999",
  "latitude": 35.00339025,
  "longitude": 135.761014,
  "location": {
    "type": "Point",
    "coordinates": [
      135.761014,
      35.00339025
    ]
  }
},
{
  "_id": {
    "$oid": "6549035aa9503ce1646dcdcf"
  },
  "restaurant_id": 8,
  "name": "Sumika  ",
  "japaneseName": "棲家",
  "station": "Kawaramachi",
  "firstCategory": "Izakaya (Tavern)",
  "secondCategory": "Creative cuisine",
  "dinnerPrice": "￥3000～￥3999",
  "lunchPrice": "NA",
  "latitude": 35.00470409,
  "longitude": 135.7701821,
  "location": {
    "type": "Point",
    "coordinates": [
      135.7701821,
      35.00470409
    ]
  }
},
{
  "_id": {
    "$oid": "6549035aa9503ce1646dcdd5"
  },
  "restaurant_id": 14,
  "name": "gionni-yongo  ",
  "japaneseName": "祗園245",
  "station": "Sanjo Keihan",
  "firstCategory": "Italian",
  "secondCategory": "French",
  "dinnerPrice": "￥10000～￥14999",
  "lunchPrice": "￥6000～￥7999",
  "latitude": 35.00630102,
  "longitude": 135.7756227,
  "location": {
    "type": "Point",
    "coordinates": [
      135.7756227,
      35.00630102
    ]
  }
},
{
  "_id": {
    "$oid": "6549035aa9503ce1646dcde1"
  },
  "restaurant_id": 26,
  "name": "Kushiyachouemon  ",
  "japaneseName": "長右衛門 京都烏丸店",
  "station": "Karasuma",
  "firstCategory": "Izakaya (Tavern)",
  "secondCategory": "Yakitori (Grilled chicken)",
  "dinnerPrice": "￥3000～￥3999",
  "lunchPrice": " ～￥999",
  "latitude": 35.00508842,
  "longitude": 135.7620638,
  "location": {
    "type": "Point",
    "coordinates": [
      135.7620638,
      35.00508842
    ]
  }
},
{
  "_id": {
    "$oid": "6549035aa9503ce1646dcde8"
  },
  "restaurant_id": 33,
  "name": "teppandainingukyoushikian  ",
  "japaneseName": "鉄板ダイニング 京四季庵",
  "station": "Gion Shijo",
  "firstCategory": "Teppanyaki",
  "secondCategory": "Steak",
  "dinnerPrice": "￥5000～￥5999",
  "lunchPrice": "NA",
  "latitude": 35.00508719,
  "longitude": 135.7711664,
  "location": {
    "type": "Point",
    "coordinates": [
      135.7711664,
      35.00508719
    ]
  }
},
{
  "_id": {
    "$oid": "6549035aa9503ce1646dcdea"
  },
  "restaurant_id": 35,
  "name": "In the Soup.  ",
  "japaneseName": "in the Soup.",
  "station": "Gion Shijo",
  "firstCategory": "Bar",
  "secondCategory": "Bistro",
  "dinnerPrice": "￥3000～￥3999",
  "lunchPrice": "￥1000～￥1999",
  "latitude": 35.00412676,
  "longitude": 135.7727658,
  "location": {
    "type": "Point",
    "coordinates": [
      135.7727658,
      35.00412676
    ]
  }
},
{
  "_id": {
    "$oid": "6549035aa9503ce1646dcdf3"
  },
  "restaurant_id": 44,
  "name": "Resutoraniro  ",
  "japaneseName": "restaurant IRO",
  "station": "Karasuma",
  "firstCategory": "Izakaya (Tavern)",
  "secondCategory": "Creative cuisine",
  "dinnerPrice": "￥4000～￥4999",
  "lunchPrice": "NA",
  "latitude": 35.00291505,
  "longitude": 135.7632593,
  "location": {
    "type": "Point",
    "coordinates": [
      135.7632593,
      35.00291505
    ]
  }
},
{
  "_id": {
    "$oid": "6549035aa9503ce1646dcdfc"
  },
  "restaurant_id": 53,
  "name": "pontochoutanrakuyatoriume  ",
  "japaneseName": "先斗町 炭楽屋とりうめ",
  "station": "Sanjo",
  "firstCategory": "Yakitori (Grilled chicken)",
  "secondCategory": "Izakaya (Tavern)",
  "dinnerPrice": "￥4000～￥4999",
  "lunchPrice": "NA",
  "latitude": 35.0076733,
  "longitude": 135.7712113,
  "location": {
    "type": "Point",
    "coordinates": [
      135.7712113,
      35.0076733
    ]
  }
},
{
  "_id": {
    "$oid": "6549035aa9503ce1646dce11"
  },
  "restaurant_id": 74,
  "name": "Ichishun  ",
  "japaneseName": "一瞬",
  "station": "Kyoto",
  "firstCategory": "Izakaya (Tavern)",
  "secondCategory": "Japanese food (other)",
  "dinnerPrice": "￥4000～￥4999",
  "lunchPrice": " ～￥999",
  "latitude": 34.98777994,
  "longitude": 135.7594723,
  "location": {
    "type": "Point",
    "coordinates": [
      135.7594723,
      34.98777994
    ]
  }
},
{
  "_id": {
    "$oid": "6549035aa9503ce1646dce14"
  },
  "restaurant_id": 77,
  "name": "RIGOLETTO SMOKE GRILL & BAR  ",
  "japaneseName": "RIGOLETTO SMOKE GRILL & BAR",
  "station": "Gion Shijo",
  "firstCategory": "Italian",
  "secondCategory": "Spain",
  "dinnerPrice": "￥4000～￥4999",
  "lunchPrice": "￥1000～￥1999",
  "latitude": 35.00238534,
  "longitude": 135.7761467,
  "location": {
    "type": "Point",
    "coordinates": [
      135.7761467,
      35.00238534
    ]
  }
},
{
  "_id": {
    "$oid": "6549035aa9503ce1646dce2a"
  },
  "restaurant_id": 99,
  "name": "nihonshusumiyakiyaiki  ",
  "japaneseName": "日本酒 炭焼き家 粋",
  "station": "Fushimi Momoyama",
  "firstCategory": "Izakaya (Tavern)",
  "secondCategory": "Kappo (Traditional Japanese)",
  "dinnerPrice": "￥3000～￥3999",
  "lunchPrice": "NA",
  "latitude": 34.93199404,
  "longitude": 135.7634804,
  "location": {
    "type": "Point",
    "coordinates": [
      135.7634804,
      34.93199404
    ]
  }
},
{
  "_id": {
    "$oid": "6549035aa9503ce1646dce34"
  },
  "restaurant_id": 109,
  "name": "Pizzeria e Bar La Voce  ",
  "japaneseName": "Pizzeria e Bar La Voce",
  "station": "Kawaramachi",
  "firstCategory": "Italian",
  "secondCategory": "Pizza",
  "dinnerPrice": "￥3000～￥3999",
  "lunchPrice": "￥1000～￥1999",
  "latitude": 35.00244571,
  "longitude": 135.7659175,
  "location": {
    "type": "Point",
    "coordinates": [
      135.7659175,
      35.00244571
    ]
  }
},
{
  "_id": {
    "$oid": "6549035aa9503ce1646dce39"
  },
  "restaurant_id": 114,
  "name": "Shisui  ",
  "japaneseName": "紫水",
  "station": "Sanjo",
  "firstCategory": "Izakaya (Tavern)",
  "secondCategory": "Kyoto Cuisine",
  "dinnerPrice": "￥3000～￥3999",
  "lunchPrice": "NA",
  "latitude": 35.0091959,
  "longitude": 135.7705221,
  "location": {
    "type": "Point",
    "coordinates": [
      135.7705221,
      35.0091959
    ]
  }
},
{
  "_id": {
    "$oid": "6549035aa9503ce1646dce3d"
  },
  "restaurant_id": 118,
  "name": "Kyoutonijoutosaka  ",
  "japaneseName": "京都二条とさか",
  "station": "Marutamachi",
  "firstCategory": "Kappo (Traditional Japanese)",
  "secondCategory": "Japanese food (other)",
  "dinnerPrice": "￥8000～￥9999",
  "lunchPrice": "￥2000～￥2999",
  "latitude": 35.01359001,
  "longitude": 135.7620504,
  "location": {
    "type": "Point",
    "coordinates": [
      135.7620504,
      35.01359001
    ]
  }
},
{
  "_id": {
    "$oid": "6549035aa9503ce1646dce48"
  },
  "restaurant_id": 129,
  "name": "sakanaryouritosakeshinsengumi  ",
  "japaneseName": "魚料理と酒 新鮮具味",
  "station": "Fushimi",
  "firstCategory": "Izakaya (Tavern)",
  "secondCategory": "Seafood",
  "dinnerPrice": "￥6000～￥7999",
  "lunchPrice": "￥2000～￥2999",
  "latitude": 34.94028148,
  "longitude": 135.7471631,
  "location": {
    "type": "Point",
    "coordinates": [
      135.7471631,
      34.94028148
    ]
  }
},
{
  "_id": {
    "$oid": "6549035aa9503ce1646dce4c"
  },
  "restaurant_id": 133,
  "name": "Higashinotouinsou  ",
  "japaneseName": "東洞院SOU",
  "station": "Karasuma Oike",
  "firstCategory": "Kappo (Traditional Japanese)",
  "secondCategory": "Japanese food (other)",
  "dinnerPrice": "￥4000～￥4999",
  "lunchPrice": "￥1000～￥1999",
  "latitude": 35.00749425,
  "longitude": 135.7610202,
  "location": {
    "type": "Point",
    "coordinates": [
      135.7610202,
      35.00749425
    ]
  }
},
{
  "_id": {
    "$oid": "6549035aa9503ce1646dce54"
  },
  "restaurant_id": 141,
  "name": "torisemmontenyamadori  ",
  "japaneseName": "鶏専門店山鶏",
  "station": "Kyoto",
  "firstCategory": "Yakitori (Grilled chicken)",
  "secondCategory": "Sukiyaki",
  "dinnerPrice": "￥3000～￥3999",
  "lunchPrice": "NA",
  "latitude": 34.98937449,
  "longitude": 135.7588348,
  "location": {
    "type": "Point",
    "coordinates": [
      135.7588348,
      34.98937449
    ]
  }
},
{
  "_id": {
    "$oid": "6549035aa9503ce1646dce65"
  },
  "restaurant_id": 158,
  "name": "Nihonryouriukihashi  ",
  "japaneseName": "浮橋",
  "station": "Kyoto",
  "firstCategory": "Kaiseki (Traditional Japanese)",
  "secondCategory": "Kyoto Cuisine",
  "dinnerPrice": "￥8000～￥9999",
  "lunchPrice": "￥3000～￥3999",
  "latitude": 34.98607818,
  "longitude": 135.7595916,
  "location": {
    "type": "Point",
    "coordinates": [
      135.7595916,
      34.98607818
    ]
  }
},
{
  "_id": {
    "$oid": "6549035aa9503ce1646dce67"
  },
  "restaurant_id": 160,
  "name": "Tsuneo  ",
  "japaneseName": "ツネオ",
  "station": "Gion Shijo",
  "firstCategory": "Kappo (Traditional Japanese)",
  "secondCategory": "Wine bar",
  "dinnerPrice": "￥10000～￥14999",
  "lunchPrice": "NA",
  "latitude": 35.00028061,
  "longitude": 135.7786952,
  "location": {
    "type": "Point",
    "coordinates": [
      135.7786952,
      35.00028061
    ]
  }
},
{
  "_id": {
    "$oid": "6549035aa9503ce1646dce6a"
  },
  "restaurant_id": 163,
  "name": "LOTUS  ",
  "japaneseName": "スモーク＆グリル ロータス",
  "station": "Shijo",
  "firstCategory": "Italian",
  "secondCategory": "Izakaya (Tavern)",
  "dinnerPrice": "￥4000～￥4999",
  "lunchPrice": "NA",
  "latitude": 35.00426398,
  "longitude": 135.757374,
  "location": {
    "type": "Point",
    "coordinates": [
      135.757374,
      35.00426398
    ]
  }
},
{
  "_id": {
    "$oid": "6549035aa9503ce1646dce6b"
  },
  "restaurant_id": 164,
  "name": "Saredokafe  ",
  "japaneseName": "saredoかふぇ",
  "station": "Kyoto",
  "firstCategory": "Cafe",
  "secondCategory": "Crepes",
  "dinnerPrice": "￥1000～￥1999",
  "lunchPrice": "￥1000～￥1999",
  "latitude": 34.98906643,
  "longitude": 135.7570222,
  "location": {
    "type": "Point",
    "coordinates": [
      135.7570222,
      34.98906643
    ]
  }
},
{
  "_id": {
    "$oid": "6549035aa9503ce1646dce6e"
  },
  "restaurant_id": 167,
  "name": "Kyuushuunecchuuya  ",
  "japaneseName": "九州 熱中屋 四条大宮 LIVE",
  "station": "Omiya",
  "firstCategory": "Izakaya (Tavern)",
  "secondCategory": "Dumplings",
  "dinnerPrice": "￥3000～￥3999",
  "lunchPrice": "NA",
  "latitude": 35.00470434,
  "longitude": 135.7488441,
  "location": {
    "type": "Point",
    "coordinates": [
      135.7488441,
      35.00470434
    ]
  }
},
{
  "_id": {
    "$oid": "6549035aa9503ce1646dce79"
  },
  "restaurant_id": 178,
  "name": "Monakadou  ",
  "japaneseName": "もなか堂",
  "station": "Kawaramachi",
  "firstCategory": "Izakaya (Tavern)",
  "secondCategory": "Creative cuisine",
  "dinnerPrice": "￥3000～￥3999",
  "lunchPrice": "NA",
  "latitude": 35.00462229,
  "longitude": 135.7699111,
  "location": {
    "type": "Point",
    "coordinates": [
      135.7699111,
      35.00462229
    ]
  }
},
{
  "_id": {
    "$oid": "6549035aa9503ce1646dce7c"
  },
  "restaurant_id": 181,
  "name": "Ikiikiudon  ",
  "japaneseName": "いきいきうどん 京都店",
  "station": "Karasuma Oike",
  "firstCategory": "Udon",
  "secondCategory": "Japanese food (other)",
  "dinnerPrice": " ～￥999",
  "lunchPrice": " ～￥999",
  "latitude": 35.01121047,
  "longitude": 135.758368,
  "location": {
    "type": "Point",
    "coordinates": [
      135.758368,
      35.01121047
    ]
  }
},
{
  "_id": {
    "$oid": "6549035aa9503ce1646dce85"
  },
  "restaurant_id": 190,
  "name": "Satsumagokamon  ",
  "japaneseName": "薩摩ごかもん 京都四条烏丸本店",
  "station": "Karasuma",
  "firstCategory": "Izakaya (Tavern)",
  "secondCategory": "Sukiyaki",
  "dinnerPrice": "￥3000～￥3999",
  "lunchPrice": " ～￥999",
  "latitude": 35.00407238,
  "longitude": 135.7601146,
  "location": {
    "type": "Point",
    "coordinates": [
      135.7601146,
      35.00407238
    ]
  }
},
{
  "_id": {
    "$oid": "6549035aa9503ce1646dce8e"
  },
  "restaurant_id": 199,
  "name": "Satsuki  ",
  "japaneseName": "さつき",
  "station": "Kyoto Shiyakusho Mae",
  "firstCategory": "Kyoto Cuisine",
  "secondCategory": "Kaiseki (Traditional Japanese)",
  "dinnerPrice": "￥10000～￥14999",
  "lunchPrice": "NA",
  "latitude": 35.01189478,
  "longitude": 135.770775,
  "location": {
    "type": "Point",
    "coordinates": [
      135.770775,
      35.01189478
    ]
  }
},
{
  "_id": {
    "$oid": "6549035aa9503ce1646dce8f"
  },
  "restaurant_id": 200,
  "name": "Kaitoshirowainnobarukakimaru  ",
  "japaneseName": "貝と白ワインのバル KAKIMARU 西院店",
  "station": "Saiin",
  "firstCategory": "Bar",
  "secondCategory": "Izakaya (Tavern)",
  "dinnerPrice": "￥3000～￥3999",
  "lunchPrice": "NA",
  "latitude": 35.00238373,
  "longitude": 135.7314704,
  "location": {
    "type": "Point",
    "coordinates": [
      135.7314704,
      35.00238373
    ]
  }
},
{
  "_id": {
    "$oid": "6549035aa9503ce1646dce97"
  },
  "restaurant_id": 208,
  "name": "TORIBUN  ",
  "japaneseName": "炭焼家 酉文",
  "station": "Kawaramachi",
  "firstCategory": "Izakaya (Tavern)",
  "secondCategory": "Yakitori (Grilled chicken)",
  "dinnerPrice": "￥3000～￥3999",
  "lunchPrice": "￥1000～￥1999",
  "latitude": 35.00400394,
  "longitude": 135.7695802,
  "location": {
    "type": "Point",
    "coordinates": [
      135.7695802,
      35.00400394
    ]
  }
},
{
  "_id": {
    "$oid": "6549035aa9503ce1646dce9f"
  },
  "restaurant_id": 216,
  "name": "zensekikoshitsuizakayataketorinoneiro  ",
  "japaneseName": "全席個室居酒屋 竹取の音色 京都駅前店",
  "station": "Kyoto",
  "firstCategory": "Izakaya (Tavern)",
  "secondCategory": "Seafood",
  "dinnerPrice": "￥3000～￥3999",
  "lunchPrice": "NA",
  "latitude": 34.98736196,
  "longitude": 135.7607689,
  "location": {
    "type": "Point",
    "coordinates": [
      135.7607689,
      34.98736196
    ]
  }
},
{
  "_id": {
    "$oid": "6549035aa9503ce1646dceb5"
  },
  "restaurant_id": 238,
  "name": "Dainingunagomi  ",
  "japaneseName": "Dining Nagomi 山科店",
  "station": "Keihan Yamashina",
  "firstCategory": "Izakaya (Tavern)",
  "secondCategory": "Japanese food (other)",
  "dinnerPrice": "￥2000～￥2999",
  "lunchPrice": "NA",
  "latitude": 34.9896418,
  "longitude": 135.8134167,
  "location": {
    "type": "Point",
    "coordinates": [
      135.8134167,
      34.9896418
    ]
  }
},
{
  "_id": {
    "$oid": "6549035aa9503ce1646dceb7"
  },
  "restaurant_id": 240,
  "name": "gionnotonjiruyasanadachiya  ",
  "japaneseName": "ぎおんの豚汁屋さん あだち家",
  "station": "Gion Shijo",
  "firstCategory": "Regional Cuisine (Other)",
  "secondCategory": "Nihonshu (Japanese sake)",
  "dinnerPrice": "￥3000～￥3999",
  "lunchPrice": "NA",
  "latitude": 35.00465785,
  "longitude": 135.7745367,
  "location": {
    "type": "Point",
    "coordinates": [
      135.7745367,
      35.00465785
    ]
  }
},
{
  "_id": {
    "$oid": "6549035aa9503ce1646dcec9"
  },
  "restaurant_id": 258,
  "name": "Ashuckurk  ",
  "japaneseName": "アシュクルク",
  "station": "Demachiyanagi",
  "firstCategory": "Bistro",
  "secondCategory": "Bar",
  "dinnerPrice": "￥3000～￥3999",
  "lunchPrice": "NA",
  "latitude": 35.0282667,
  "longitude": 135.7741001,
  "location": {
    "type": "Point",
    "coordinates": [
      135.7741001,
      35.0282667
    ]
  }
},
{
  "_id": {
    "$oid": "6549035aa9503ce1646dceea"
  },
  "restaurant_id": 291,
  "name": "Bar PLAYGROUND  ",
  "japaneseName": "バル　プレイグラウンド",
  "station": "Imadegawa",
  "firstCategory": "Bar",
  "secondCategory": "Wine bar",
  "dinnerPrice": "￥3000～￥3999",
  "lunchPrice": "￥1000～￥1999",
  "latitude": 35.02956428,
  "longitude": 135.7547553,
  "location": {
    "type": "Point",
    "coordinates": [
      135.7547553,
      35.02956428
    ]
  }
},
{
  "_id": {
    "$oid": "6549035aa9503ce1646dcef5"
  },
  "restaurant_id": 302,
  "name": "Nikuryouritobatoyo  ",
  "japaneseName": "肉料理 とばとよ",
  "station": "Karasuma",
  "firstCategory": "Beef dishes",
  "secondCategory": "Wine bar",
  "dinnerPrice": "￥4000～￥4999",
  "lunchPrice": " ～￥999",
  "latitude": 35.00643287,
  "longitude": 135.7551302,
  "location": {
    "type": "Point",
    "coordinates": [
      135.7551302,
      35.00643287
    ]
  }
},
{
  "_id": {
    "$oid": "6549035aa9503ce1646dcef8"
  },
  "restaurant_id": 305,
  "name": "Puranchaken  ",
  "japaneseName": "プランチャー健",
  "station": "Gion Shijo",
  "firstCategory": "Steak",
  "secondCategory": "Creative cuisine",
  "dinnerPrice": "￥8000～￥9999",
  "lunchPrice": "NA",
  "latitude": 35.00429774,
  "longitude": 135.7764759,
  "location": {
    "type": "Point",
    "coordinates": [
      135.7764759,
      35.00429774
    ]
  }
},
{
  "_id": {
    "$oid": "6549035aa9503ce1646dcefb"
  },
  "restaurant_id": 308,
  "name": "Ichibakouji  ",
  "japaneseName": "市場小路 ジェイアール京都伊勢丹店",
  "station": "Kyoto",
  "firstCategory": "Dining bar",
  "secondCategory": "Creative cuisine",
  "dinnerPrice": "￥4000～￥4999",
  "lunchPrice": "￥1000～￥1999",
  "latitude": 34.98585234,
  "longitude": 135.757424,
  "location": {
    "type": "Point",
    "coordinates": [
      135.757424,
      34.98585234
    ]
  }
},
{
  "_id": {
    "$oid": "6549035aa9503ce1646dcf03"
  },
  "restaurant_id": 316,
  "name": "Yakinikuhorumongyuuteruryourianiki  ",
  "japaneseName": "焼肉ホルモン・牛テール料理　あにき",
  "station": "Shijo Omiya",
  "firstCategory": "Yakiniku (BBQ Beef)",
  "secondCategory": "Horumon (BBQ Offel)",
  "dinnerPrice": "￥3000～￥3999",
  "lunchPrice": " ～￥999",
  "latitude": 35.00338911,
  "longitude": 135.7436246,
  "location": {
    "type": "Point",
    "coordinates": [
      135.7436246,
      35.00338911
    ]
  }
},
{
  "_id": {
    "$oid": "6549035aa9503ce1646dcf06"
  },
  "restaurant_id": 319,
  "name": "Kushidainigusumiyakiromanya  ",
  "japaneseName": "浪漫家 四条烏丸店",
  "station": "Shijo",
  "firstCategory": "Izakaya (Tavern)",
  "secondCategory": "Yakitori (Grilled chicken)",
  "dinnerPrice": "￥3000～￥3999",
  "lunchPrice": "NA",
  "latitude": 35.00394263,
  "longitude": 135.7578403,
  "location": {
    "type": "Point",
    "coordinates": [
      135.7578403,
      35.00394263
    ]
  }
},
{
  "_id": {
    "$oid": "6549035aa9503ce1646dcf09"
  },
  "restaurant_id": 322,
  "name": "Saketosakanatootokomaeshokudou  ",
  "japaneseName": "酒と魚とオトコマエ食堂",
  "station": "Kyoto",
  "firstCategory": "Izakaya (Tavern)",
  "secondCategory": "Seafood",
  "dinnerPrice": "￥3000～￥3999",
  "lunchPrice": "￥3000～￥3999",
  "latitude": 34.98769275,
  "longitude": 135.760535,
  "location": {
    "type": "Point",
    "coordinates": [
      135.760535,
      34.98769275
    ]
  }
},
{
  "_id": {
    "$oid": "6549035aa9503ce1646dcf11"
  },
  "restaurant_id": 330,
  "name": "Karasumarugenkiichiba  ",
  "japaneseName": "烏丸元気市場",
  "station": "Karasuma Oike",
  "firstCategory": "Izakaya (Tavern)",
  "secondCategory": "Seafood",
  "dinnerPrice": "￥3000～￥3999",
  "lunchPrice": "NA",
  "latitude": 35.01037447,
  "longitude": 135.7591983,
  "location": {
    "type": "Point",
    "coordinates": [
      135.7591983,
      35.01037447
    ]
  }
},
{
  "_id": {
    "$oid": "6549035aa9503ce1646dcf17"
  },
  "restaurant_id": 336,
  "name": "Itameshioriva  ",
  "japaneseName": "イタメシOliva",
  "station": "Gion Shijo",
  "firstCategory": "Italian",
  "secondCategory": "Bar",
  "dinnerPrice": "￥3000～￥3999",
  "lunchPrice": "NA",
  "latitude": 35.00575974,
  "longitude": 135.7710062,
  "location": {
    "type": "Point",
    "coordinates": [
      135.7710062,
      35.00575974
    ]
  }
},
{
  "_id": {
    "$oid": "6549035aa9503ce1646dcf20"
  },
  "restaurant_id": 345,
  "name": "Old School wine and spirits  ",
  "japaneseName": "Old School wine and spirits",
  "station": "Kyoto Shiyakusho Mae",
  "firstCategory": "Dining bar",
  "secondCategory": "Bar",
  "dinnerPrice": "￥3000～￥3999",
  "lunchPrice": "NA",
  "latitude": 35.0120894,
  "longitude": 135.7660726,
  "location": {
    "type": "Point",
    "coordinates": [
      135.7660726,
      35.0120894
    ]
  }
},
{
  "_id": {
    "$oid": "6549035aa9503ce1646dcf27"
  },
  "restaurant_id": 352,
  "name": "Kyoutonishikitempurasakabataneshichi  ",
  "japaneseName": "京都 錦 天ぷら酒場 たね七",
  "station": "Karasuma",
  "firstCategory": "Tempura",
  "secondCategory": "Izakaya (Tavern)",
  "dinnerPrice": "￥2000～￥2999",
  "lunchPrice": " ～￥999",
  "latitude": 35.0047299,
  "longitude": 135.7632265,
  "location": {
    "type": "Point",
    "coordinates": [
      135.7632265,
      35.0047299
    ]
  }
},
{
  "_id": {
    "$oid": "6549035aa9503ce1646dcf31"
  },
  "restaurant_id": 362,
  "name": "MAWARI  ",
  "japaneseName": "近江牛食べ放題 焼肉 囘 河原町店",
  "station": "Kawaramachi",
  "firstCategory": "Yakiniku (BBQ Beef)",
  "secondCategory": "Korean cuisine",
  "dinnerPrice": "￥3000～￥3999",
  "lunchPrice": "NA",
  "latitude": 35.00658616,
  "longitude": 135.769507,
  "location": {
    "type": "Point",
    "coordinates": [
      135.769507,
      35.00658616
    ]
  }
},
{
  "_id": {
    "$oid": "6549035aa9503ce1646dcf39"
  },
  "restaurant_id": 370,
  "name": "Hamachou  ",
  "japaneseName": "浜町",
  "station": "Sanjo",
  "firstCategory": "Kaiseki (Traditional Japanese)",
  "secondCategory": "Izakaya (Tavern)",
  "dinnerPrice": "￥5000～￥5999",
  "lunchPrice": "￥4000～￥4999",
  "latitude": 35.00927589,
  "longitude": 135.7701291,
  "location": {
    "type": "Point",
    "coordinates": [
      135.7701291,
      35.00927589
    ]
  }
},
{
  "_id": {
    "$oid": "6549035aa9503ce1646dcf3f"
  },
  "restaurant_id": 376,
  "name": "fu-zuba-shioriya  ",
  "japaneseName": "Foods bar 栞屋",
  "station": "Fushimi Momoyama",
  "firstCategory": "Izakaya (Tavern)",
  "secondCategory": "Seafood",
  "dinnerPrice": "￥3000～￥3999",
  "lunchPrice": "￥1000～￥1999",
  "latitude": 34.93221704,
  "longitude": 135.7620672,
  "location": {
    "type": "Point",
    "coordinates": [
      135.7620672,
      34.93221704
    ]
  }
},
{
  "_id": {
    "$oid": "6549035aa9503ce1646dcf4e"
  },
  "restaurant_id": 391,
  "name": "Kyouryouriyumekaisekitaniguchi  ",
  "japaneseName": "京料理夢懐石 谷ぐち",
  "station": "Marutamachi",
  "firstCategory": "Kyoto Cuisine",
  "secondCategory": "Kaiseki (Traditional Japanese)",
  "dinnerPrice": "￥6000～￥7999",
  "lunchPrice": "￥4000～￥4999",
  "latitude": 35.01692026,
  "longitude": 135.7651078,
  "location": {
    "type": "Point",
    "coordinates": [
      135.7651078,
      35.01692026
    ]
  }
},
{
  "_id": {
    "$oid": "6549035aa9503ce1646dcf59"
  },
  "restaurant_id": 402,
  "name": "kaisekifuransuryourigurumantachibana  ",
  "japaneseName": "懐石フランス料理 グルマン橘",
  "station": "Kyoto",
  "firstCategory": "French",
  "secondCategory": "Western Cuisine",
  "dinnerPrice": "￥8000～￥9999",
  "lunchPrice": "￥4000～￥4999",
  "latitude": 34.98616194,
  "longitude": 135.7525047,
  "location": {
    "type": "Point",
    "coordinates": [
      135.7525047,
      34.98616194
    ]
  }
},
{
  "_id": {
    "$oid": "6549035aa9503ce1646dcf5f"
  },
  "restaurant_id": 408,
  "name": "Shuuhou  ",
  "japaneseName": "秀峰",
  "station": "Kujo",
  "firstCategory": "Yakiniku (BBQ Beef)",
  "secondCategory": "Horumon (BBQ Offel)",
  "dinnerPrice": "￥5000～￥5999",
  "lunchPrice": "NA",
  "latitude": 34.97578732,
  "longitude": 135.7586391,
  "location": {
    "type": "Point",
    "coordinates": [
      135.7586391,
      34.97578732
    ]
  }
},
{
  "_id": {
    "$oid": "6549035aa9503ce1646dcf66"
  },
  "restaurant_id": 415,
  "name": "Kyoutofushimigura  ",
  "japaneseName": "京都伏見蔵 烏丸別邸",
  "station": "Karasuma",
  "firstCategory": "Izakaya (Tavern)",
  "secondCategory": "Seafood",
  "dinnerPrice": "￥3000～￥3999",
  "lunchPrice": "NA",
  "latitude": 35.0027397,
  "longitude": 135.7627259,
  "location": {
    "type": "Point",
    "coordinates": [
      135.7627259,
      35.0027397
    ]
  }
},
{
  "_id": {
    "$oid": "6549035aa9503ce1646dcf6c"
  },
  "restaurant_id": 421,
  "name": "LOBUTA  ",
  "japaneseName": "ろぶた",
  "station": "Mototanaka",
  "firstCategory": "Izakaya (Tavern)",
  "secondCategory": "Korean cuisine",
  "dinnerPrice": "￥2000～￥2999",
  "lunchPrice": "NA",
  "latitude": 35.03361987,
  "longitude": 135.7812251,
  "location": {
    "type": "Point",
    "coordinates": [
      135.7812251,
      35.03361987
    ]
  }
},
{
  "_id": {
    "$oid": "6549035aa9503ce1646dcf72"
  },
  "restaurant_id": 427,
  "name": "Southern Court  ",
  "japaneseName": "サザンコート",
  "station": "Kyoto",
  "firstCategory": "Dining bar",
  "secondCategory": "Western (Others)",
  "dinnerPrice": "￥3000～￥3999",
  "lunchPrice": "￥2000～￥2999",
  "latitude": 34.98607818,
  "longitude": 135.7595916,
  "location": {
    "type": "Point",
    "coordinates": [
      135.7595916,
      34.98607818
    ]
  }
},
{
  "_id": {
    "$oid": "6549035aa9503ce1646dcf74"
  },
  "restaurant_id": 429,
  "name": "Tenkanoyakinikudaishougun  ",
  "japaneseName": "天下の焼肉 大将軍 四条大宮店",
  "station": "Omiya",
  "firstCategory": "Yakiniku (BBQ Beef)",
  "secondCategory": "Korean cuisine",
  "dinnerPrice": "￥3000～￥3999",
  "lunchPrice": " ～￥999",
  "latitude": 35.00325534,
  "longitude": 135.7498877,
  "location": {
    "type": "Point",
    "coordinates": [
      135.7498877,
      35.00325534
    ]
  }
},
{
  "_id": {
    "$oid": "6549035aa9503ce1646dcf79"
  },
  "restaurant_id": 434,
  "name": "ryoushigoya  ",
  "japaneseName": "舞鶴港 漁師小屋",
  "station": "Nishi Maizuru",
  "firstCategory": "Izakaya (Tavern)",
  "secondCategory": "Seafood",
  "dinnerPrice": "￥3000～￥3999",
  "lunchPrice": "￥1000～￥1999",
  "latitude": 35.44836924,
  "longitude": 135.3272909,
  "location": {
    "type": "Point",
    "coordinates": [
      135.3272909,
      35.44836924
    ]
  }
},
{
  "_id": {
    "$oid": "6549035aa9503ce1646dcf89"
  },
  "restaurant_id": 450,
  "name": "Arigatou  ",
  "japaneseName": "ありが十。",
  "station": "Keihan Yamashina",
  "firstCategory": "Izakaya (Tavern)",
  "secondCategory": "Yakiniku (BBQ Beef)",
  "dinnerPrice": "￥3000～￥3999",
  "lunchPrice": "NA",
  "latitude": 34.99077783,
  "longitude": 135.8158342,
  "location": {
    "type": "Point",
    "coordinates": [
      135.8158342,
      34.99077783
    ]
  }
},
{
  "_id": {
    "$oid": "6549035aa9503ce1646dcf8f"
  },
  "restaurant_id": 456,
  "name": "gyuukushibunzou  ",
  "japaneseName": "牛串ぶんぞう 先斗町店",
  "station": "Sanjo",
  "firstCategory": "Izakaya (Tavern)",
  "secondCategory": "Sumibiyaki",
  "dinnerPrice": "￥4000～￥4999",
  "lunchPrice": "￥1000～￥1999",
  "latitude": 35.00807298,
  "longitude": 135.771021,
  "location": {
    "type": "Point",
    "coordinates": [
      135.771021,
      35.00807298
    ]
  }
},
{
  "_id": {
    "$oid": "6549035aa9503ce1646dcf90"
  },
  "restaurant_id": 457,
  "name": "PREGO TOKICHI  ",
  "japaneseName": "プレーゴ藤吉",
  "station": "Kyoto Shiyakusho Mae",
  "firstCategory": "Italian",
  "secondCategory": "Sumibiyaki",
  "dinnerPrice": "￥6000～￥7999",
  "lunchPrice": "￥3000～￥3999",
  "latitude": 35.01199866,
  "longitude": 135.7708145,
  "location": {
    "type": "Point",
    "coordinates": [
      135.7708145,
      35.01199866
    ]
  }
},
{
  "_id": {
    "$oid": "6549035aa9503ce1646dcf9a"
  },
  "restaurant_id": 467,
  "name": "sumibisute-kisakaikyoutosanjou  ",
  "japaneseName": "炭火ステーキ坂井 京都三条",
  "station": "Karasuma Oike",
  "firstCategory": "Steak",
  "secondCategory": "Kaiseki (Traditional Japanese)",
  "dinnerPrice": "￥10000～￥14999",
  "lunchPrice": "￥1000～￥1999",
  "latitude": 35.00840383,
  "longitude": 135.7583487,
  "location": {
    "type": "Point",
    "coordinates": [
      135.7583487,
      35.00840383
    ]
  }
},
{
  "_id": {
    "$oid": "6549035aa9503ce1646dcfa4"
  },
  "restaurant_id": 477,
  "name": "Sumibikushiyakitsujiya  ",
  "japaneseName": "炭火串焼つじや 京都駅前店",
  "station": "Kyoto",
  "firstCategory": "Izakaya (Tavern)",
  "secondCategory": "Kushiyaki (Grilled skewer)",
  "dinnerPrice": "￥3000～￥3999",
  "lunchPrice": "NA",
  "latitude": 34.98728598,
  "longitude": 135.7546971,
  "location": {
    "type": "Point",
    "coordinates": [
      135.7546971,
      34.98728598
    ]
  }
},
{
  "_id": {
    "$oid": "6549035aa9503ce1646dcfa8"
  },
  "restaurant_id": 481,
  "name": "coLLabo  ",
  "japaneseName": "コラボ",
  "station": "Karasuma Oike",
  "firstCategory": "Cafe",
  "secondCategory": "Hamburger Steak",
  "dinnerPrice": "￥1000～￥1999",
  "lunchPrice": " ～￥999",
  "latitude": 35.00875081,
  "longitude": 135.7626903,
  "location": {
    "type": "Point",
    "coordinates": [
      135.7626903,
      35.00875081
    ]
  }
},
{
  "_id": {
    "$oid": "6549035aa9503ce1646dcfaa"
  },
  "restaurant_id": 483,
  "name": "Ryuuan  ",
  "japaneseName": "りゅう庵",
  "station": "Gion Shijo",
  "firstCategory": "Yakiniku (BBQ Beef)",
  "secondCategory": "Japanese food (other)",
  "dinnerPrice": "￥6000～￥7999",
  "lunchPrice": "￥1000～￥1999",
  "latitude": 35.00470336,
  "longitude": 135.7724647,
  "location": {
    "type": "Point",
    "coordinates": [
      135.7724647,
      35.00470336
    ]
  }
},
{
  "_id": {
    "$oid": "6549035aa9503ce1646dcdd1"
  },
  "restaurant_id": 10,
  "name": "Ishibekoujimamecha  ",
  "japaneseName": "石塀小路 豆ちゃ 京都",
  "station": "Gion Shijo",
  "firstCategory": "Izakaya (Tavern)",
  "secondCategory": "Kyoto Cuisine",
  "dinnerPrice": "￥4000～￥4999",
  "lunchPrice": "NA",
  "latitude": 35.00081306,
  "longitude": 135.7791554,
  "location": {
    "type": "Point",
    "coordinates": [
      135.7791554,
      35.00081306
    ]
  }
},
{
  "_id": {
    "$oid": "6549035aa9503ce1646dcdda"
  },
  "restaurant_id": 19,
  "name": "biakicchinnikubarujikabiyajikabiya  ",
  "japaneseName": "ビアキッチン肉バル ジカビヤ 京都河原町店",
  "station": "Kawaramachi",
  "firstCategory": "Bar",
  "secondCategory": "Izakaya (Tavern)",
  "dinnerPrice": "￥3000～￥3999",
  "lunchPrice": "￥1000～￥1999",
  "latitude": 35.00626924,
  "longitude": 135.768979,
  "location": {
    "type": "Point",
    "coordinates": [
      135.768979,
      35.00626924
    ]
  }
},
{
  "_id": {
    "$oid": "6549035aa9503ce1646dcdde"
  },
  "restaurant_id": 23,
  "name": "Izakayariraku  ",
  "japaneseName": "居酒屋 りらく",
  "station": "Karasuma",
  "firstCategory": "Yakitori (Grilled chicken)",
  "secondCategory": "Fowl",
  "dinnerPrice": "￥3000～￥3999",
  "lunchPrice": "NA",
  "latitude": 35.00257147,
  "longitude": 135.7626947,
  "location": {
    "type": "Point",
    "coordinates": [
      135.7626947,
      35.00257147
    ]
  }
},
{
  "_id": {
    "$oid": "6549035aa9503ce1646dcde3"
  },
  "restaurant_id": 28,
  "name": "Komefuku  ",
  "japaneseName": "米福 京都木屋町",
  "station": "Sanjo",
  "firstCategory": "Tempura",
  "secondCategory": "Seafood",
  "dinnerPrice": "￥3000～￥3999",
  "lunchPrice": "NA",
  "latitude": 35.00829461,
  "longitude": 135.7706832,
  "location": {
    "type": "Point",
    "coordinates": [
      135.7706832,
      35.00829461
    ]
  }
},
{
  "_id": {
    "$oid": "6549035aa9503ce1646dcde5"
  },
  "restaurant_id": 30,
  "name": "kushiyakimanten  ",
  "japaneseName": "串焼 満天 先斗町店",
  "station": "Sanjo",
  "firstCategory": "Yakitori (Grilled chicken)",
  "secondCategory": "Kyoto Cuisine",
  "dinnerPrice": "￥3000～￥3999",
  "lunchPrice": "NA",
  "latitude": 35.00796132,
  "longitude": 135.7710027,
  "location": {
    "type": "Point",
    "coordinates": [
      135.7710027,
      35.00796132
    ]
  }
},
{
  "_id": {
    "$oid": "6549035aa9503ce1646dcdef"
  },
  "restaurant_id": 40,
  "name": "Gokyou  ",
  "japaneseName": "牛京 東九条店",
  "station": "Jujo",
  "firstCategory": "Yakiniku (BBQ Beef)",
  "secondCategory": "Horumon (BBQ Offel)",
  "dinnerPrice": "￥3000～￥3999",
  "lunchPrice": "NA",
  "latitude": 34.97540433,
  "longitude": 135.759546,
  "location": {
    "type": "Point",
    "coordinates": [
      135.759546,
      34.97540433
    ]
  }
},
{
  "_id": {
    "$oid": "6549035aa9503ce1646dcdf1"
  },
  "restaurant_id": 42,
  "name": "Tsukihikarasuma  ",
  "japaneseName": "月陽 KARASUMA",
  "station": "Shijo",
  "firstCategory": "Izakaya (Tavern)",
  "secondCategory": "Creative cuisine",
  "dinnerPrice": "￥4000～￥4999",
  "lunchPrice": "￥1000～￥1999",
  "latitude": 35.00140428,
  "longitude": 135.7573322,
  "location": {
    "type": "Point",
    "coordinates": [
      135.7573322,
      35.00140428
    ]
  }
},
{
  "_id": {
    "$oid": "6549035aa9503ce1646dcdf2"
  },
  "restaurant_id": 43,
  "name": "Kyoutotempuraendou  ",
  "japaneseName": "京都 天ぷら圓堂 岡崎邸",
  "station": "Higashiyama",
  "firstCategory": "Tempura",
  "secondCategory": "Kaiseki (Traditional Japanese)",
  "dinnerPrice": "￥10000～￥14999",
  "lunchPrice": "￥5000～￥5999",
  "latitude": 35.01616672,
  "longitude": 135.7802501,
  "location": {
    "type": "Point",
    "coordinates": [
      135.7802501,
      35.01616672
    ]
  }
},
{
  "_id": {
    "$oid": "6549035aa9503ce1646dcdfa"
  },
  "restaurant_id": 51,
  "name": "Kyoutohanabi  ",
  "japaneseName": "京都ハナビ",
  "station": "Karasuma",
  "firstCategory": "Izakaya (Tavern)",
  "secondCategory": "Japanese food (other)",
  "dinnerPrice": "￥2000～￥2999",
  "lunchPrice": "NA",
  "latitude": 35.00267232,
  "longitude": 135.7625575,
  "location": {
    "type": "Point",
    "coordinates": [
      135.7625575,
      35.00267232
    ]
  }
},
{
  "_id": {
    "$oid": "6549035aa9503ce1646dcdfd"
  },
  "restaurant_id": 54,
  "name": "Osakanadekoboko  ",
  "japaneseName": "御肴 凸鉾",
  "station": "Kyoto",
  "firstCategory": "Izakaya (Tavern)",
  "secondCategory": "Seafood",
  "dinnerPrice": "￥3000～￥3999",
  "lunchPrice": "NA",
  "latitude": 34.98970255,
  "longitude": 135.7611427,
  "location": {
    "type": "Point",
    "coordinates": [
      135.7611427,
      34.98970255
    ]
  }
},
{
  "_id": {
    "$oid": "6549035aa9503ce1646dce1d"
  },
  "restaurant_id": 86,
  "name": "Italian bar Lugol  ",
  "japaneseName": "イタリアンバール ルゴール",
  "station": "Karasuma Oike",
  "firstCategory": "Italian",
  "secondCategory": "Pasta",
  "dinnerPrice": "￥2000～￥2999",
  "lunchPrice": " ～￥999",
  "latitude": 35.01118767,
  "longitude": 135.7566701,
  "location": {
    "type": "Point",
    "coordinates": [
      135.7566701,
      35.01118767
    ]
  }
},
{
  "_id": {
    "$oid": "6549035aa9503ce1646dce1e"
  },
  "restaurant_id": 87,
  "name": "Takishokudou  ",
  "japaneseName": "ターキー食堂",
  "station": "Shijo",
  "firstCategory": "Dining bar",
  "secondCategory": "Izakaya (Tavern)",
  "dinnerPrice": "￥3000～￥3999",
  "lunchPrice": "NA",
  "latitude": 35.00263301,
  "longitude": 135.7552976,
  "location": {
    "type": "Point",
    "coordinates": [
      135.7552976,
      35.00263301
    ]
  }
},
{
  "_id": {
    "$oid": "6549035aa9503ce1646dce33"
  },
  "restaurant_id": 108,
  "name": "Yakinikuichiba  ",
  "japaneseName": "焼肉市場 高野店",
  "station": "Chayama",
  "firstCategory": "Yakiniku (BBQ Beef)",
  "secondCategory": "Horumon (BBQ Offel)",
  "dinnerPrice": "￥3000～￥3999",
  "lunchPrice": "NA",
  "latitude": 35.04059256,
  "longitude": 135.787096,
  "location": {
    "type": "Point",
    "coordinates": [
      135.787096,
      35.04059256
    ]
  }
},
{
  "_id": {
    "$oid": "6549035aa9503ce1646dce35"
  },
  "restaurant_id": 110,
  "name": "Nyavetonamu  ",
  "japaneseName": "ニャーヴェトナム 京都店",
  "station": "Kyoto",
  "firstCategory": "Viet Nam cuisine",
  "secondCategory": "Cafe",
  "dinnerPrice": "￥3000～￥3999",
  "lunchPrice": "￥1000～￥1999",
  "latitude": 34.98870873,
  "longitude": 135.7594598,
  "location": {
    "type": "Point",
    "coordinates": [
      135.7594598,
      34.98870873
    ]
  }
},
{
  "_id": {
    "$oid": "6549035aa9503ce1646dce52"
  },
  "restaurant_id": 139,
  "name": "Momojirou  ",
  "japaneseName": "ももじろう JR山科駅前店",
  "station": "Keihan Yamashina",
  "firstCategory": "Izakaya (Tavern)",
  "secondCategory": "Seafood",
  "dinnerPrice": "￥3000～￥3999",
  "lunchPrice": "NA",
  "latitude": 34.99188524,
  "longitude": 135.8175848,
  "location": {
    "type": "Point",
    "coordinates": [
      135.8175848,
      34.99188524
    ]
  }
},
{
  "_id": {
    "$oid": "6549035aa9503ce1646dce5a"
  },
  "restaurant_id": 147,
  "name": "Roppakuyakado  ",
  "japaneseName": "Roppakuya KADO",
  "station": "Karasuma",
  "firstCategory": "Izakaya (Tavern)",
  "secondCategory": "Wine bar",
  "dinnerPrice": "￥3000～￥3999",
  "lunchPrice": "NA",
  "latitude": 35.00446896,
  "longitude": 135.7575412,
  "location": {
    "type": "Point",
    "coordinates": [
      135.7575412,
      35.00446896
    ]
  }
},
{
  "_id": {
    "$oid": "6549035aa9503ce1646dce60"
  },
  "restaurant_id": 153,
  "name": "kyouryourikaji  ",
  "japaneseName": "京料理 かじ",
  "station": "Marutamachi",
  "firstCategory": "Kyoto Cuisine",
  "secondCategory": "Kaiseki (Traditional Japanese)",
  "dinnerPrice": "￥8000～￥9999",
  "lunchPrice": "￥5000～￥5999",
  "latitude": 35.01723393,
  "longitude": 135.7544747,
  "location": {
    "type": "Point",
    "coordinates": [
      135.7544747,
      35.01723393
    ]
  }
},
{
  "_id": {
    "$oid": "6549035aa9503ce1646dce63"
  },
  "restaurant_id": 156,
  "name": "Waraiya  ",
  "japaneseName": "笑い屋",
  "station": "Kawaramachi",
  "firstCategory": "Izakaya (Tavern)",
  "secondCategory": "Yakitori (Grilled chicken)",
  "dinnerPrice": "￥4000～￥4999",
  "lunchPrice": "NA",
  "latitude": 35.00281149,
  "longitude": 135.7649356,
  "location": {
    "type": "Point",
    "coordinates": [
      135.7649356,
      35.00281149
    ]
  }
},
{
  "_id": {
    "$oid": "6549035aa9503ce1646dce68"
  },
  "restaurant_id": 161,
  "name": "KYOTO GATTEN  ",
  "japaneseName": "酒と肉天ぷら 勝天",
  "station": "Gion Shijo",
  "firstCategory": "Tempura",
  "secondCategory": "Sushi",
  "dinnerPrice": "￥3000～￥3999",
  "lunchPrice": "￥1000～￥1999",
  "latitude": 35.0040634,
  "longitude": 135.7709187,
  "location": {
    "type": "Point",
    "coordinates": [
      135.7709187,
      35.0040634
    ]
  }
},
{
  "_id": {
    "$oid": "6549035aa9503ce1646dce69"
  },
  "restaurant_id": 162,
  "name": "Figerasu  ",
  "japaneseName": "フィゲラス",
  "station": "Gion Shijo",
  "firstCategory": "Spain",
  "secondCategory": "Bar",
  "dinnerPrice": "￥5000～￥5999",
  "lunchPrice": "NA",
  "latitude": 35.00471337,
  "longitude": 135.772886,
  "location": {
    "type": "Point",
    "coordinates": [
      135.772886,
      35.00471337
    ]
  }
},
{
  "_id": {
    "$oid": "6549035aa9503ce1646dce71"
  },
  "restaurant_id": 170,
  "name": "mo-shondaina-  ",
  "japaneseName": "MOTION DINER KYOTO",
  "station": "Kyoto Shiyakusho Mae",
  "firstCategory": "Cafe",
  "secondCategory": "Burger",
  "dinnerPrice": "￥2000～￥2999",
  "lunchPrice": "￥1000～￥1999",
  "latitude": 35.00799043,
  "longitude": 135.7676282,
  "location": {
    "type": "Point",
    "coordinates": [
      135.7676282,
      35.00799043
    ]
  }
},
{
  "_id": {
    "$oid": "6549035aa9503ce1646dce73"
  },
  "restaurant_id": 172,
  "name": "Tenshinchashitsu  ",
  "japaneseName": "點心茶室 京都店",
  "station": "Kyoto",
  "firstCategory": "Shanghai Cuisine",
  "secondCategory": "Cantonese Cuisine",
  "dinnerPrice": "￥3000～￥3999",
  "lunchPrice": "￥1000～￥1999",
  "latitude": 34.985854,
  "longitude": 135.7574248,
  "location": {
    "type": "Point",
    "coordinates": [
      135.7574248,
      34.985854
    ]
  }
},
{
  "_id": {
    "$oid": "6549035aa9503ce1646dce75"
  },
  "restaurant_id": 174,
  "name": "Oumigyuuyakinikumeitokuya  ",
  "japaneseName": "近江牛焼肉 銘特屋",
  "station": "Jujo",
  "firstCategory": "Yakiniku (BBQ Beef)",
  "secondCategory": "NA",
  "dinnerPrice": "￥4000～￥4999",
  "lunchPrice": "NA",
  "latitude": 34.96957352,
  "longitude": 135.7571817,
  "location": {
    "type": "Point",
    "coordinates": [
      135.7571817,
      34.96957352
    ]
  }
},
{
  "_id": {
    "$oid": "6549035aa9503ce1646dce7a"
  },
  "restaurant_id": 179,
  "name": "kyoutoayanokoujimangetsunohana  ",
  "japaneseName": "京都綾小路 満月の花",
  "station": "Karasuma",
  "firstCategory": "Sweets",
  "secondCategory": "Japanese food (other)",
  "dinnerPrice": "￥2000～￥2999",
  "lunchPrice": " ～￥999",
  "latitude": 35.00256177,
  "longitude": 135.7636721,
  "location": {
    "type": "Point",
    "coordinates": [
      135.7636721,
      35.00256177
    ]
  }
},
{
  "_id": {
    "$oid": "6549035aa9503ce1646dce7b"
  },
  "restaurant_id": 180,
  "name": "shunsaibaruiberiko  ",
  "japaneseName": "旬彩バル イベリコ",
  "station": "Sanjo",
  "firstCategory": "Dining bar",
  "secondCategory": "Creative cuisine",
  "dinnerPrice": "￥3000～￥3999",
  "lunchPrice": "NA",
  "latitude": 35.00759578,
  "longitude": 135.7696395,
  "location": {
    "type": "Point",
    "coordinates": [
      135.7696395,
      35.00759578
    ]
  }
},
{
  "_id": {
    "$oid": "6549035aa9503ce1646dce82"
  },
  "restaurant_id": 187,
  "name": "nihonshubarujinsuke  ",
  "japaneseName": "日本酒バル JINSUKE",
  "station": "Karasuma",
  "firstCategory": "Izakaya (Tavern)",
  "secondCategory": "Seafood",
  "dinnerPrice": "￥3000～￥3999",
  "lunchPrice": "NA",
  "latitude": 35.00261177,
  "longitude": 135.7637935,
  "location": {
    "type": "Point",
    "coordinates": [
      135.7637935,
      35.00261177
    ]
  }
},
{
  "_id": {
    "$oid": "6549035aa9503ce1646dce89"
  },
  "restaurant_id": 194,
  "name": "CHULETA  ",
  "japaneseName": "チュレタ",
  "station": "Gion Shijo",
  "firstCategory": "Spain",
  "secondCategory": "Bar",
  "dinnerPrice": "￥5000～￥5999",
  "lunchPrice": "￥1000～￥1999",
  "latitude": 35.00413204,
  "longitude": 135.7727738,
  "location": {
    "type": "Point",
    "coordinates": [
      135.7727738,
      35.00413204
    ]
  }
},
{
  "_id": {
    "$oid": "6549035aa9503ce1646dce99"
  },
  "restaurant_id": 210,
  "name": "Bistro SUMIRE Chinese   ",
  "japaneseName": "Bistro SUMIRE Chinese ",
  "station": "Gion Shijo",
  "firstCategory": "Chinese",
  "secondCategory": "Dim sum",
  "dinnerPrice": "￥8000～￥9999",
  "lunchPrice": "NA",
  "latitude": 35.00186918,
  "longitude": 135.7702564,
  "location": {
    "type": "Point",
    "coordinates": [
      135.7702564,
      35.00186918
    ]
  }
},
{
  "_id": {
    "$oid": "6549035aa9503ce1646dcea4"
  },
  "restaurant_id": 221,
  "name": "Sakanayariichi  ",
  "japaneseName": "酒肴菜や 利一",
  "station": "Keihan Yamashina",
  "firstCategory": "Izakaya (Tavern)",
  "secondCategory": "Seafood",
  "dinnerPrice": "￥4000～￥4999",
  "lunchPrice": "NA",
  "latitude": 34.99107112,
  "longitude": 135.8153492,
  "location": {
    "type": "Point",
    "coordinates": [
      135.8153492,
      34.99107112
    ]
  }
},
{
  "_id": {
    "$oid": "6549035aa9503ce1646dcea5"
  },
  "restaurant_id": 222,
  "name": "yasaidainingukusushi  ",
  "japaneseName": "野菜ダイニング 薬師",
  "station": "Sanjo",
  "firstCategory": "Vegetable dishes",
  "secondCategory": "Izakaya (other)",
  "dinnerPrice": "￥3000～￥3999",
  "lunchPrice": "NA",
  "latitude": 35.00844624,
  "longitude": 135.769312,
  "location": {
    "type": "Point",
    "coordinates": [
      135.769312,
      35.00844624
    ]
  }
},
{
  "_id": {
    "$oid": "6549035aa9503ce1646dcea9"
  },
  "restaurant_id": 226,
  "name": "Iorisantouka  ",
  "japaneseName": "庵 山頭火",
  "station": "Emmachi",
  "firstCategory": "Izakaya (Tavern)",
  "secondCategory": "Kyoto Cuisine",
  "dinnerPrice": "￥3000～￥3999",
  "lunchPrice": "NA",
  "latitude": 35.01739681,
  "longitude": 135.7296451,
  "location": {
    "type": "Point",
    "coordinates": [
      135.7296451,
      35.01739681
    ]
  }
},
{
  "_id": {
    "$oid": "6549035aa9503ce1646dcebe"
  },
  "restaurant_id": 247,
  "name": "gansochiriteppanyakimotsunabeakachiriya  ",
  "japaneseName": "元祖 ちり鉄板焼×もつ鍋 赤ちり屋 京都駅八条口店",
  "station": "Kyoto",
  "firstCategory": "Motsu Nabe (Offel Hot Pot)",
  "secondCategory": "Izakaya (Tavern)",
  "dinnerPrice": "￥3000～￥3999",
  "lunchPrice": "NA",
  "latitude": 34.98304879,
  "longitude": 135.7600159,
  "location": {
    "type": "Point",
    "coordinates": [
      135.7600159,
      34.98304879
    ]
  }
},
{
  "_id": {
    "$oid": "6549035aa9503ce1646dcebf"
  },
  "restaurant_id": 248,
  "name": "Nikumon  ",
  "japaneseName": "肉もん",
  "station": "Omiya",
  "firstCategory": "Yakiniku (BBQ Beef)",
  "secondCategory": "Izakaya (Tavern)",
  "dinnerPrice": "￥3000～￥3999",
  "lunchPrice": "NA",
  "latitude": 35.00432743,
  "longitude": 135.7485169,
  "location": {
    "type": "Point",
    "coordinates": [
      135.7485169,
      35.00432743
    ]
  }
},
{
  "_id": {
    "$oid": "6549035aa9503ce1646dcecc"
  },
  "restaurant_id": 261,
  "name": "Chanchi  ",
  "japaneseName": "チャンチ 京都店 ",
  "station": "Kyoto",
  "firstCategory": "Korean cuisine",
  "secondCategory": "Izakaya (Tavern)",
  "dinnerPrice": "￥2000～￥2999",
  "lunchPrice": " ～￥999",
  "latitude": 34.98820184,
  "longitude": 135.7590032,
  "location": {
    "type": "Point",
    "coordinates": [
      135.7590032,
      34.98820184
    ]
  }
},
{
  "_id": {
    "$oid": "6549035aa9503ce1646dced0"
  },
  "restaurant_id": 265,
  "name": "Momojirou  ",
  "japaneseName": "ももじろう 今出川百万遍店",
  "station": "Demachiyanagi",
  "firstCategory": "Izakaya (Tavern)",
  "secondCategory": "Seafood",
  "dinnerPrice": "￥2000～￥2999",
  "lunchPrice": "NA",
  "latitude": 35.02863145,
  "longitude": 135.7780225,
  "location": {
    "type": "Point",
    "coordinates": [
      135.7780225,
      35.02863145
    ]
  }
},
{
  "_id": {
    "$oid": "6549035aa9503ce1646dced1"
  },
  "restaurant_id": 266,
  "name": "daikouen  ",
  "japaneseName": "大香園",
  "station": "Tambaguchi",
  "firstCategory": "Yakiniku (BBQ Beef)",
  "secondCategory": "Korean cuisine",
  "dinnerPrice": "￥4000～￥4999",
  "lunchPrice": "NA",
  "latitude": 34.99871515,
  "longitude": 135.7425885,
  "location": {
    "type": "Point",
    "coordinates": [
      135.7425885,
      34.99871515
    ]
  }
},
{
  "_id": {
    "$oid": "6549035aa9503ce1646dced4"
  },
  "restaurant_id": 269,
  "name": "Ichibakouji  ",
  "japaneseName": "市場小路 寺町本店",
  "station": "Kawaramachi",
  "firstCategory": "Izakaya (Tavern)",
  "secondCategory": "Steak",
  "dinnerPrice": "￥3000～￥3999",
  "lunchPrice": "￥1000～￥1999",
  "latitude": 35.00525792,
  "longitude": 135.7666593,
  "location": {
    "type": "Point",
    "coordinates": [
      135.7666593,
      35.00525792
    ]
  }
},
{
  "_id": {
    "$oid": "6549035aa9503ce1646dced7"
  },
  "restaurant_id": 272,
  "name": "Tempurashinjukutsunahachi  ",
  "japaneseName": "天ぷら新宿つな八 京都店",
  "station": "Kawaramachi",
  "firstCategory": "Tempura",
  "secondCategory": "Kaiseki (Traditional Japanese)",
  "dinnerPrice": "￥4000～￥4999",
  "lunchPrice": "￥1000～￥1999",
  "latitude": 35.00320622,
  "longitude": 135.7681326,
  "location": {
    "type": "Point",
    "coordinates": [
      135.7681326,
      35.00320622
    ]
  }
},
{
  "_id": {
    "$oid": "6549035aa9503ce1646dcedf"
  },
  "restaurant_id": 280,
  "name": "saredowa  ",
  "japaneseName": "310 saredowa",
  "station": "Kyoto",
  "firstCategory": "Izakaya (Tavern)",
  "secondCategory": "Creative cuisine",
  "dinnerPrice": "￥3000～￥3999",
  "lunchPrice": "NA",
  "latitude": 34.98856423,
  "longitude": 135.7550916,
  "location": {
    "type": "Point",
    "coordinates": [
      135.7550916,
      34.98856423
    ]
  }
},
{
  "_id": {
    "$oid": "6549035aa9503ce1646dcee4"
  },
  "restaurant_id": 285,
  "name": "wainandooyasaibarubejibaru  ",
  "japaneseName": "ワイン＆お野菜バル ベジバル",
  "station": "Shijo",
  "firstCategory": "Italian",
  "secondCategory": "Wine bar",
  "dinnerPrice": "￥4000～￥4999",
  "lunchPrice": "￥2000～￥2999",
  "latitude": 35.00276905,
  "longitude": 135.7567664,
  "location": {
    "type": "Point",
    "coordinates": [
      135.7567664,
      35.00276905
    ]
  }
},
{
  "_id": {
    "$oid": "6549035aa9503ce1646dcefe"
  },
  "restaurant_id": 311,
  "name": "Imomatsu  ",
  "japaneseName": "いも松",
  "station": "Kyoto",
  "firstCategory": "Izakaya (Tavern)",
  "secondCategory": "Motsu Nabe (Offel Hot Pot)",
  "dinnerPrice": "￥3000～￥3999",
  "lunchPrice": "NA",
  "latitude": 34.98934687,
  "longitude": 135.7563728,
  "location": {
    "type": "Point",
    "coordinates": [
      135.7563728,
      34.98934687
    ]
  }
},
{
  "_id": {
    "$oid": "6549035aa9503ce1646dcf00"
  },
  "restaurant_id": 313,
  "name": "Mogu piatti  ",
  "japaneseName": "モグピアッティ",
  "station": "Karasuma Oike",
  "firstCategory": "Italian",
  "secondCategory": "Bar",
  "dinnerPrice": "￥3000～￥3999",
  "lunchPrice": "￥1000～￥1999",
  "latitude": 35.00850498,
  "longitude": 135.7612626,
  "location": {
    "type": "Point",
    "coordinates": [
      135.7612626,
      35.00850498
    ]
  }
},
{
  "_id": {
    "$oid": "6549035aa9503ce1646dcf02"
  },
  "restaurant_id": 315,
  "name": "Taichirouya  ",
  "japaneseName": "たいちろうや",
  "station": "Nishikyogoku",
  "firstCategory": "Izakaya (Tavern)",
  "secondCategory": "Seafood",
  "dinnerPrice": "￥5000～￥5999",
  "lunchPrice": "NA",
  "latitude": 34.99117387,
  "longitude": 135.7186397,
  "location": {
    "type": "Point",
    "coordinates": [
      135.7186397,
      34.99117387
    ]
  }
},
{
  "_id": {
    "$oid": "6549035aa9503ce1646dcf04"
  },
  "restaurant_id": 317,
  "name": "shioriya  ",
  "japaneseName": "栞屋 烏丸仏光寺店",
  "station": "Shijo",
  "firstCategory": "Izakaya (Tavern)",
  "secondCategory": "Seafood",
  "dinnerPrice": "￥4000～￥4999",
  "lunchPrice": "NA",
  "latitude": 35.00121602,
  "longitude": 135.7601425,
  "location": {
    "type": "Point",
    "coordinates": [
      135.7601425,
      35.00121602
    ]
  }
},
{
  "_id": {
    "$oid": "6549035aa9503ce1646dcf05"
  },
  "restaurant_id": 318,
  "name": "Bar MICHIya  ",
  "japaneseName": "Bar MICHIya",
  "station": "Sanjo",
  "firstCategory": "Bar",
  "secondCategory": "Bar",
  "dinnerPrice": "￥3000～￥3999",
  "lunchPrice": "NA",
  "latitude": 35.0092109,
  "longitude": 135.7705649,
  "location": {
    "type": "Point",
    "coordinates": [
      135.7705649,
      35.0092109
    ]
  }
},
{
  "_id": {
    "$oid": "6549035aa9503ce1646dcf0c"
  },
  "restaurant_id": 325,
  "name": "kyouchabana  ",
  "japaneseName": "京ちゃばな 南新町店",
  "station": "Kyoto",
  "firstCategory": "Okonomiyaki",
  "secondCategory": "Izakaya (Tavern)",
  "dinnerPrice": "￥2000～￥2999",
  "lunchPrice": "NA",
  "latitude": 34.98908171,
  "longitude": 135.7569578,
  "location": {
    "type": "Point",
    "coordinates": [
      135.7569578,
      34.98908171
    ]
  }
},
{
  "_id": {
    "$oid": "6549035aa9503ce1646dcf10"
  },
  "restaurant_id": 329,
  "name": "Teramachihambagugokurakutombo  ",
  "japaneseName": "寺町ハンバーグ 極楽蜻蛉",
  "station": "Kyoto Shiyakusho Mae",
  "firstCategory": "Hamburger Steak",
  "secondCategory": "Western Cuisine",
  "dinnerPrice": "￥3000～￥3999",
  "lunchPrice": "￥1000～￥1999",
  "latitude": 35.01416698,
  "longitude": 135.7674096,
  "location": {
    "type": "Point",
    "coordinates": [
      135.7674096,
      35.01416698
    ]
  }
},
{
  "_id": {
    "$oid": "6549035aa9503ce1646dcf14"
  },
  "restaurant_id": 333,
  "name": "kyouyasaitosousakuryourinakaya  ",
  "japaneseName": "京野菜と創作料理 中家",
  "station": "Saiin",
  "firstCategory": "Izakaya (Tavern)",
  "secondCategory": "Dandan noodles",
  "dinnerPrice": "￥3000～￥3999",
  "lunchPrice": "NA",
  "latitude": 35.00235789,
  "longitude": 135.7311296,
  "location": {
    "type": "Point",
    "coordinates": [
      135.7311296,
      35.00235789
    ]
  }
},
{
  "_id": {
    "$oid": "6549035aa9503ce1646dcf26"
  },
  "restaurant_id": 351,
  "name": "Sentojemusukurabu  ",
  "japaneseName": "SENT JAMES CLUB 本店",
  "station": "Gion Shijo",
  "firstCategory": "Bar",
  "secondCategory": "NA",
  "dinnerPrice": "￥2000～￥2999",
  "lunchPrice": "NA",
  "latitude": 35.00282131,
  "longitude": 135.7706827,
  "location": {
    "type": "Point",
    "coordinates": [
      135.7706827,
      35.00282131
    ]
  }
},
{
  "_id": {
    "$oid": "6549035aa9503ce1646dcf2a"
  },
  "restaurant_id": 355,
  "name": "Rohan  ",
  "japaneseName": "露飯",
  "station": "Karasuma",
  "firstCategory": "Izakaya (Tavern)",
  "secondCategory": "Seafood",
  "dinnerPrice": "￥2000～￥2999",
  "lunchPrice": "NA",
  "latitude": 35.00523698,
  "longitude": 135.7604515,
  "location": {
    "type": "Point",
    "coordinates": [
      135.7604515,
      35.00523698
    ]
  }
},
{
  "_id": {
    "$oid": "6549035aa9503ce1646dcf36"
  },
  "restaurant_id": 367,
  "name": "HOMURA  ",
  "japaneseName": "あかやしろ 焔",
  "station": "Sai",
  "firstCategory": "Yakiniku (BBQ Beef)",
  "secondCategory": "Horumon (BBQ Offel)",
  "dinnerPrice": "￥4000～￥4999",
  "lunchPrice": "NA",
  "latitude": 35.00345478,
  "longitude": 135.7348459,
  "location": {
    "type": "Point",
    "coordinates": [
      135.7348459,
      35.00345478
    ]
  }
},
{
  "_id": {
    "$oid": "6549035aa9503ce1646dcf3d"
  },
  "restaurant_id": 374,
  "name": "kyouyakiyomizuhonke  ",
  "japaneseName": "京家 きよみず 本家",
  "station": "Karasuma",
  "firstCategory": "Izakaya (Tavern)",
  "secondCategory": "Kyoto Cuisine",
  "dinnerPrice": "￥3000～￥3999",
  "lunchPrice": "NA",
  "latitude": 35.00235124,
  "longitude": 135.7639235,
  "location": {
    "type": "Point",
    "coordinates": [
      135.7639235,
      35.00235124
    ]
  }
},
{
  "_id": {
    "$oid": "6549035aa9503ce1646dcf42"
  },
  "restaurant_id": 379,
  "name": "konana  ",
  "japaneseName": "こなな 四条店",
  "station": "Karasuma",
  "firstCategory": "Pasta",
  "secondCategory": "Cafe",
  "dinnerPrice": "￥1000～￥1999",
  "lunchPrice": "￥1000～￥1999",
  "latitude": 35.00481871,
  "longitude": 135.7612222,
  "location": {
    "type": "Point",
    "coordinates": [
      135.7612222,
      35.00481871
    ]
  }
},
{
  "_id": {
    "$oid": "6549035aa9503ce1646dcf44"
  },
  "restaurant_id": 381,
  "name": "Youfuushuzenumakarou  ",
  "japaneseName": "洋風酒膳うまかろう",
  "station": "Higashi Muko",
  "firstCategory": "Izakaya (Tavern)",
  "secondCategory": "Dining bar",
  "dinnerPrice": "￥2000～￥2999",
  "lunchPrice": "NA",
  "latitude": 34.95235865,
  "longitude": 135.7071078,
  "location": {
    "type": "Point",
    "coordinates": [
      135.7071078,
      34.95235865
    ]
  }
},
{
  "_id": {
    "$oid": "6549035aa9503ce1646dcf4f"
  },
  "restaurant_id": 392,
  "name": "Kinnotsubasaerudoru  ",
  "japaneseName": "金の翼 エルドール",
  "station": "Karasuma",
  "firstCategory": "Izakaya (Tavern)",
  "secondCategory": "Korean cuisine",
  "dinnerPrice": "￥3000～￥3999",
  "lunchPrice": "￥1000～￥1999",
  "latitude": 35.00481651,
  "longitude": 135.7624763,
  "location": {
    "type": "Point",
    "coordinates": [
      135.7624763,
      35.00481651
    ]
  }
},
{
  "_id": {
    "$oid": "6549035aa9503ce1646dcf51"
  },
  "restaurant_id": 394,
  "name": "Yoshina  ",
  "japaneseName": "よし菜",
  "station": "Sanjo",
  "firstCategory": "Kyoto Cuisine",
  "secondCategory": "Kaiseki (Traditional Japanese)",
  "dinnerPrice": "￥5000～￥5999",
  "lunchPrice": "NA",
  "latitude": 35.00674979,
  "longitude": 135.7711555,
  "location": {
    "type": "Point",
    "coordinates": [
      135.7711555,
      35.00674979
    ]
  }
},
{
  "_id": {
    "$oid": "6549035aa9503ce1646dcf68"
  },
  "restaurant_id": 417,
  "name": "yakinikuyaruki  ",
  "japaneseName": "焼肉やる気 河原町店",
  "station": "Sanjo",
  "firstCategory": "Yakiniku (BBQ Beef)",
  "secondCategory": "Izakaya (Tavern)",
  "dinnerPrice": "￥2000～￥2999",
  "lunchPrice": "NA",
  "latitude": 35.0079463,
  "longitude": 135.7697172,
  "location": {
    "type": "Point",
    "coordinates": [
      135.7697172,
      35.0079463
    ]
  }
},
{
  "_id": {
    "$oid": "6549035aa9503ce1646dcf6b"
  },
  "restaurant_id": 420,
  "name": "yakinikuyaruki  ",
  "japaneseName": "焼肉やる気 新堀川本店",
  "station": "Fushimi",
  "firstCategory": "Yakiniku (BBQ Beef)",
  "secondCategory": "Izakaya (Tavern)",
  "dinnerPrice": "￥2000～￥2999",
  "lunchPrice": "NA",
  "latitude": 34.94446056,
  "longitude": 135.7521497,
  "location": {
    "type": "Point",
    "coordinates": [
      135.7521497,
      34.94446056
    ]
  }
},
{
  "_id": {
    "$oid": "6549035aa9503ce1646dcf83"
  },
  "restaurant_id": 444,
  "name": "Risutoranteazekura  ",
  "japaneseName": "Ristorante Azekura",
  "station": "Kitayama",
  "firstCategory": "Italian",
  "secondCategory": "Restaurants (other)",
  "dinnerPrice": "￥10000～￥14999",
  "lunchPrice": "￥4000～￥4999",
  "latitude": 35.05931897,
  "longitude": 135.7601765,
  "location": {
    "type": "Point",
    "coordinates": [
      135.7601765,
      35.05931897
    ]
  }
},
{
  "_id": {
    "$oid": "6549035aa9503ce1646dcf9b"
  },
  "restaurant_id": 468,
  "name": "Ryuuhourakuenchura  ",
  "japaneseName": "琉泡楽園 美ら 舞鶴店",
  "station": "Nishi Maizuru",
  "firstCategory": "Okinawan Cuisine",
  "secondCategory": "Izakaya (Tavern)",
  "dinnerPrice": "￥3000～￥3999",
  "lunchPrice": "NA",
  "latitude": 35.44491796,
  "longitude": 135.3279413,
  "location": {
    "type": "Point",
    "coordinates": [
      135.3279413,
      35.44491796
    ]
  }
},
{
  "_id": {
    "$oid": "6549035aa9503ce1646dcfab"
  },
  "restaurant_id": 484,
  "name": "Ace cafe  ",
  "japaneseName": "エース カフェ",
  "station": "Sanjo",
  "firstCategory": "Cafe",
  "secondCategory": "Dining bar",
  "dinnerPrice": "￥3000～￥3999",
  "lunchPrice": "NA",
  "latitude": 35.00995166,
  "longitude": 135.7706984,
  "location": {
    "type": "Point",
    "coordinates": [
      135.7706984,
      35.00995166
    ]
  }
},
{
  "_id": {
    "$oid": "6549035aa9503ce1646dcfb5"
  },
  "restaurant_id": 494,
  "name": "Bunta  ",
  "japaneseName": "ぶん太",
  "station": "Nagaoka Tenjin",
  "firstCategory": "Izakaya (Tavern)",
  "secondCategory": "Chanko Nabe (Sumo Wrestlers Hot Pot)",
  "dinnerPrice": "￥3000～￥3999",
  "lunchPrice": "NA",
  "latitude": 34.9260685,
  "longitude": 135.6962846,
  "location": {
    "type": "Point",
    "coordinates": [
      135.6962846,
      34.9260685
    ]
  }
},
{
  "_id": {
    "$oid": "6549035aa9503ce1646dcdd4"
  },
  "restaurant_id": 13,
  "name": "nishikimachinoakarishoutengai  ",
  "japaneseName": "錦 街の灯り商店街",
  "station": "Karasuma",
  "firstCategory": "Izakaya (Tavern)",
  "secondCategory": "Bar",
  "dinnerPrice": "￥2000～￥2999",
  "lunchPrice": "￥2000～￥2999",
  "latitude": 35.00516313,
  "longitude": 135.7619763,
  "location": {
    "type": "Point",
    "coordinates": [
      135.7619763,
      35.00516313
    ]
  }
},
{
  "_id": {
    "$oid": "6549035aa9503ce1646dcdf4"
  },
  "restaurant_id": 45,
  "name": "Shuteimichiya  ",
  "japaneseName": "酒亭 道や",
  "station": "Karasuma Oike",
  "firstCategory": "Izakaya (Tavern)",
  "secondCategory": "Seafood",
  "dinnerPrice": "￥5000～￥5999",
  "lunchPrice": " ～￥999",
  "latitude": 35.01332192,
  "longitude": 135.7587254,
  "location": {
    "type": "Point",
    "coordinates": [
      135.7587254,
      35.01332192
    ]
  }
},
{
  "_id": {
    "$oid": "6549035aa9503ce1646dce04"
  },
  "restaurant_id": 61,
  "name": "Sakayaagurema  ",
  "japaneseName": "酒彩 あぐれま",
  "station": "Sanjo",
  "firstCategory": "Izakaya (Tavern)",
  "secondCategory": "Sukiyaki",
  "dinnerPrice": "￥4000～￥4999",
  "lunchPrice": "NA",
  "latitude": 35.00940782,
  "longitude": 135.7701555,
  "location": {
    "type": "Point",
    "coordinates": [
      135.7701555,
      35.00940782
    ]
  }
},
{
  "_id": {
    "$oid": "6549035aa9503ce1646dce0d"
  },
  "restaurant_id": 70,
  "name": "Komefuku  ",
  "japaneseName": "米福 四条烏丸",
  "station": "Karasuma",
  "firstCategory": "Tempura",
  "secondCategory": "Ten-don (Tempura Bowl)",
  "dinnerPrice": "￥2000～￥2999",
  "lunchPrice": " ～￥999",
  "latitude": 35.00460623,
  "longitude": 135.7613531,
  "location": {
    "type": "Point",
    "coordinates": [
      135.7613531,
      35.00460623
    ]
  }
},
{
  "_id": {
    "$oid": "6549035aa9503ce1646dce13"
  },
  "restaurant_id": 76,
  "name": "Teppansakuwan  ",
  "japaneseName": "鉄板 さくわん",
  "station": "Saiin",
  "firstCategory": "Teppanyaki",
  "secondCategory": "Izakaya (Tavern)",
  "dinnerPrice": "￥3000～￥3999",
  "lunchPrice": "NA",
  "latitude": 35.00292116,
  "longitude": 135.7308126,
  "location": {
    "type": "Point",
    "coordinates": [
      135.7308126,
      35.00292116
    ]
  }
},
{
  "_id": {
    "$oid": "6549035aa9503ce1646dce19"
  },
  "restaurant_id": 82,
  "name": "Bejitejiya  ",
  "japaneseName": "ベジテジや 四条木屋町店",
  "station": "Gion Shijo",
  "firstCategory": "Yakiniku (BBQ Beef)",
  "secondCategory": "Korean cuisine",
  "dinnerPrice": "￥3000～￥3999",
  "lunchPrice": "NA",
  "latitude": 35.00353954,
  "longitude": 135.7702626,
  "location": {
    "type": "Point",
    "coordinates": [
      135.7702626,
      35.00353954
    ]
  }
},
{
  "_id": {
    "$oid": "6549035aa9503ce1646dce28"
  },
  "restaurant_id": 97,
  "name": "nikubaruginjirou  ",
  "japaneseName": "肉バル銀次郎 先斗町店",
  "station": "Gion Shijo",
  "firstCategory": "Bar",
  "secondCategory": "Steak",
  "dinnerPrice": "￥3000～￥3999",
  "lunchPrice": "NA",
  "latitude": 35.00426533,
  "longitude": 135.7709809,
  "location": {
    "type": "Point",
    "coordinates": [
      135.7709809,
      35.00426533
    ]
  }
},
{
  "_id": {
    "$oid": "6549035aa9503ce1646dce2d"
  },
  "restaurant_id": 102,
  "name": "Yamadaruma  ",
  "japaneseName": "やまだるま",
  "station": "Karasuma Oike",
  "firstCategory": "Izakaya (Tavern)",
  "secondCategory": "Seafood",
  "dinnerPrice": "￥3000～￥3999",
  "lunchPrice": " ～￥999",
  "latitude": 35.00734065,
  "longitude": 135.7604425,
  "location": {
    "type": "Point",
    "coordinates": [
      135.7604425,
      35.00734065
    ]
  }
},
{
  "_id": {
    "$oid": "6549035aa9503ce1646dce3b"
  },
  "restaurant_id": 116,
  "name": "jukuseiyakinikupondo  ",
  "japaneseName": "熟成焼肉 听 四条大宮店",
  "station": "Shijo Omiya",
  "firstCategory": "Yakiniku (BBQ Beef)",
  "secondCategory": "Horumon (BBQ Offel)",
  "dinnerPrice": "￥5000～￥5999",
  "lunchPrice": "￥1000～￥1999",
  "latitude": 35.0045499,
  "longitude": 135.7481739,
  "location": {
    "type": "Point",
    "coordinates": [
      135.7481739,
      35.0045499
    ]
  }
},
{
  "_id": {
    "$oid": "6549035aa9503ce1646dce4e"
  },
  "restaurant_id": 135,
  "name": "teppandainingugionshou  ",
  "japaneseName": "鉄板Dining祇園 翔 縄手店",
  "station": "Gion Shijo",
  "firstCategory": "Izakaya (Tavern)",
  "secondCategory": "Teppanyaki",
  "dinnerPrice": "￥2000～￥2999",
  "lunchPrice": "NA",
  "latitude": 35.004029,
  "longitude": 135.7729099,
  "location": {
    "type": "Point",
    "coordinates": [
      135.7729099,
      35.004029
    ]
  }
},
{
  "_id": {
    "$oid": "6549035aa9503ce1646dce55"
  },
  "restaurant_id": 142,
  "name": "satsumachirandorikuroyakibeppinya  ",
  "japaneseName": "さつま知覧どり 黒焼き べっぴんや",
  "station": "Karasuma",
  "firstCategory": "Izakaya (Tavern)",
  "secondCategory": "Fowl",
  "dinnerPrice": "￥3000～￥3999",
  "lunchPrice": "NA",
  "latitude": 35.00244984,
  "longitude": 135.7636802,
  "location": {
    "type": "Point",
    "coordinates": [
      135.7636802,
      35.00244984
    ]
  }
},
{
  "_id": {
    "$oid": "6549035aa9503ce1646dce5c"
  },
  "restaurant_id": 149,
  "name": "ajidokorosamon  ",
  "japaneseName": "味どころ 佐門",
  "station": "Sai",
  "firstCategory": "Izakaya (Tavern)",
  "secondCategory": "Okinawan Cuisine",
  "dinnerPrice": "￥3000～￥3999",
  "lunchPrice": " ～￥999",
  "latitude": 35.00390667,
  "longitude": 135.7343301,
  "location": {
    "type": "Point",
    "coordinates": [
      135.7343301,
      35.00390667
    ]
  }
},
{
  "_id": {
    "$oid": "6549035aa9503ce1646dce8d"
  },
  "restaurant_id": 198,
  "name": "Ilifune  ",
  "japaneseName": "ilifune",
  "station": "Jingu Marutamachi",
  "firstCategory": "Dining bar",
  "secondCategory": "Italian",
  "dinnerPrice": "￥3000～￥3999",
  "lunchPrice": "NA",
  "latitude": 35.01678867,
  "longitude": 135.7686541,
  "location": {
    "type": "Point",
    "coordinates": [
      135.7686541,
      35.01678867
    ]
  }
},
{
  "_id": {
    "$oid": "6549035aa9503ce1646dce95"
  },
  "restaurant_id": 206,
  "name": "nikugaumaikafenikkusutokku  ",
  "japaneseName": "肉が旨いカフェ NICK STOCK イオンモールKYOTO店",
  "station": "Toji",
  "firstCategory": "Cafe",
  "secondCategory": "Steak",
  "dinnerPrice": "￥1000～￥1999",
  "lunchPrice": "￥1000～￥1999",
  "latitude": 34.98310398,
  "longitude": 135.7550146,
  "location": {
    "type": "Point",
    "coordinates": [
      135.7550146,
      34.98310398
    ]
  }
},
{
  "_id": {
    "$oid": "6549035aa9503ce1646dce9e"
  },
  "restaurant_id": 215,
  "name": "Kenedhikurabu  ",
  "japaneseName": "ケネディクラブ",
  "station": "Sanjo",
  "firstCategory": "Bar",
  "secondCategory": "Italian",
  "dinnerPrice": "￥3000～￥3999",
  "lunchPrice": "NA",
  "latitude": 35.01012275,
  "longitude": 135.7707029,
  "location": {
    "type": "Point",
    "coordinates": [
      135.7707029,
      35.01012275
    ]
  }
},
{
  "_id": {
    "$oid": "6549035aa9503ce1646dcea1"
  },
  "restaurant_id": 218,
  "name": "Chabana  ",
  "japaneseName": "ちゃばな  七条新町店",
  "station": "Kyoto",
  "firstCategory": "Okonomiyaki",
  "secondCategory": "Izakaya (Tavern)",
  "dinnerPrice": "￥2000～￥2999",
  "lunchPrice": "NA",
  "latitude": 34.98935391,
  "longitude": 135.7574413,
  "location": {
    "type": "Point",
    "coordinates": [
      135.7574413,
      34.98935391
    ]
  }
},
{
  "_id": {
    "$oid": "6549035aa9503ce1646dcea6"
  },
  "restaurant_id": 223,
  "name": "nikuyanodaidokoro  ",
  "japaneseName": "肉屋の台所 京都木屋町ミート",
  "station": "Sanjo",
  "firstCategory": "Yakiniku (BBQ Beef)",
  "secondCategory": "Horumon (BBQ Offel)",
  "dinnerPrice": "￥3000～￥3999",
  "lunchPrice": "￥1000～￥1999",
  "latitude": 35.00828295,
  "longitude": 135.7706041,
  "location": {
    "type": "Point",
    "coordinates": [
      135.7706041,
      35.00828295
    ]
  }
},
{
  "_id": {
    "$oid": "6549035aa9503ce1646dceab"
  },
  "restaurant_id": 228,
  "name": "kyoutokushidokoroazumaya  ",
  "japaneseName": "京都串処東屋",
  "station": "Sanjo",
  "firstCategory": "Yakitori (Grilled chicken)",
  "secondCategory": "Izakaya (Tavern)",
  "dinnerPrice": "￥1000～￥1999",
  "lunchPrice": "NA",
  "latitude": 35.00720695,
  "longitude": 135.7706325,
  "location": {
    "type": "Point",
    "coordinates": [
      135.7706325,
      35.00720695
    ]
  }
},
{
  "_id": {
    "$oid": "6549035aa9503ce1646dceb9"
  },
  "restaurant_id": 242,
  "name": "pasutakorekushonandoba-dougetsuneo  ",
  "japaneseName": "Pasta Collection &  Bar 道月neo",
  "station": "Shijo",
  "firstCategory": "Izakaya (Tavern)",
  "secondCategory": "Pasta",
  "dinnerPrice": "￥4000～￥4999",
  "lunchPrice": "￥1000～￥1999",
  "latitude": 35.0023748,
  "longitude": 135.7609818,
  "location": {
    "type": "Point",
    "coordinates": [
      135.7609818,
      35.0023748
    ]
  }
},
{
  "_id": {
    "$oid": "6549035aa9503ce1646dcebd"
  },
  "restaurant_id": 246,
  "name": "Sajiki  ",
  "japaneseName": "桟敷",
  "station": "Karasuma",
  "firstCategory": "Izakaya (Tavern)",
  "secondCategory": "Japanese food (other)",
  "dinnerPrice": "￥4000～￥4999",
  "lunchPrice": "NA",
  "latitude": 35.00625164,
  "longitude": 135.7627323,
  "location": {
    "type": "Point",
    "coordinates": [
      135.7627323,
      35.00625164
    ]
  }
},
{
  "_id": {
    "$oid": "6549035aa9503ce1646dcec1"
  },
  "restaurant_id": 250,
  "name": "BAR-CERVECERIA xativa  ",
  "japaneseName": "シャティバ",
  "station": "Kyoto Shiyakusho Mae",
  "firstCategory": "Spain",
  "secondCategory": "Bar",
  "dinnerPrice": "￥3000～￥3999",
  "lunchPrice": "NA",
  "latitude": 35.01307482,
  "longitude": 135.7701747,
  "location": {
    "type": "Point",
    "coordinates": [
      135.7701747,
      35.01307482
    ]
  }
},
{
  "_id": {
    "$oid": "6549035aa9503ce1646dcec6"
  },
  "restaurant_id": 255,
  "name": "Yamabanaheihachidiya  ",
  "japaneseName": "山ばな平八茶屋",
  "station": "Shugakuin",
  "firstCategory": "Kyoto Cuisine",
  "secondCategory": "Kaiseki (Traditional Japanese)",
  "dinnerPrice": "￥10000～￥14999",
  "lunchPrice": "￥4000～￥4999",
  "latitude": 35.05406522,
  "longitude": 135.7910692,
  "location": {
    "type": "Point",
    "coordinates": [
      135.7910692,
      35.05406522
    ]
  }
},
{
  "_id": {
    "$oid": "6549035aa9503ce1646dcece"
  },
  "restaurant_id": 263,
  "name": "mikusoroji-ba-sumu-su  ",
  "japaneseName": "mixologybar smooth",
  "station": "Gion Shijo",
  "firstCategory": "Bar",
  "secondCategory": "Dining bar",
  "dinnerPrice": "￥2000～￥2999",
  "lunchPrice": "NA",
  "latitude": 35.00487859,
  "longitude": 135.7706387,
  "location": {
    "type": "Point",
    "coordinates": [
      135.7706387,
      35.00487859
    ]
  }
},
{
  "_id": {
    "$oid": "6549035aa9503ce1646dceef"
  },
  "restaurant_id": 296,
  "name": "Jounetsushokusaikyoushoku  ",
  "japaneseName": "情熱食彩 京色",
  "station": "Kawaramachi",
  "firstCategory": "Seafood",
  "secondCategory": "Kyoto Cuisine",
  "dinnerPrice": "￥4000～￥4999",
  "lunchPrice": "NA",
  "latitude": 35.00334798,
  "longitude": 135.7669793,
  "location": {
    "type": "Point",
    "coordinates": [
      135.7669793,
      35.00334798
    ]
  }
},
{
  "_id": {
    "$oid": "6549035aa9503ce1646dcef1"
  },
  "restaurant_id": 298,
  "name": "toriiebisu  ",
  "japaneseName": "魚里ゐ夷",
  "station": "Kyoto",
  "firstCategory": "Seafood",
  "secondCategory": "Izakaya (Tavern)",
  "dinnerPrice": "￥4000～￥4999",
  "lunchPrice": "NA",
  "latitude": 34.98289075,
  "longitude": 135.7600028,
  "location": {
    "type": "Point",
    "coordinates": [
      135.7600028,
      34.98289075
    ]
  }
},