[{
  "restaurantid": 1,
  "Name": "Orudeidainingurajou  ",
  "JapaneseName": "オールデイダイニング　ラジョウ",
  "Station": "Kyoto",
  "FirstCategory": "Buffet style",
  "SecondCategory": "Cafe",
  "DinnerPrice": "￥4000～￥4999",
  "LunchPrice": "￥2000～￥2999",
  "TotalRating": 3.39,
  "DinnerRating": 3.2,
  "LunchRating": 3.38,
  "ReviewNum": 56,
  "Lat": 34.9861751483108,
  "Long": 135.761313932311,
  "location": {
    "type": "Point",
    "coordinates": [
      null,
      null
    ]
  }
},
{
  "restaurantid": 2,
  "Name": "Steak Frites Gaspard zinzin  ",
  "JapaneseName": "ステックフリット ガスパール ザンザン",
  "Station": "Karasuma",
  "FirstCategory": "Bistro",
  "SecondCategory": "Steak",
  "DinnerPrice": "￥3000～￥3999",
  "LunchPrice": "￥1000～￥1999",
  "TotalRating": 3.18,
  "DinnerRating": 3.06,
  "LunchRating": 3.33,
  "ReviewNum": 70,
  "Lat": 35.0058257987896,
  "Long": 135.759856759688,
  "location": {
    "type": "Point",
    "coordinates": [
      null,
      null
    ]
  }
},
{
  "restaurantid": 3,
  "Name": "KAZUMA  ",
  "JapaneseName": "和馬",
  "Station": "Sanjo",
  "FirstCategory": "Izakaya (Tavern)",
  "SecondCategory": "Japanese food (other)",
  "DinnerPrice": "￥3000～￥3999",
  "LunchPrice": "NA",
  "TotalRating": 3.28,
  "DinnerRating": 3.28,
  "LunchRating": "NA",
  "ReviewNum": 7,
  "Lat": 35.0065825659963,
  "Long": 135.770246695295,
  "location": {
    "type": "Point",
    "coordinates": [
      null,
      null
    ]
  }
},
{
  "restaurantid": 4,
  "Name": "okonomiyakiteppanyakimiki  ",
  "JapaneseName": "お好み焼き 鉄板焼き 三喜",
  "Station": "Tambaguchi",
  "FirstCategory": "Okonomiyaki",
  "SecondCategory": "Izakaya (Tavern)",
  "DinnerPrice": "￥3000～￥3999",
  "LunchPrice": "NA",
  "TotalRating": 3.14,
  "DinnerRating": 3.14,
  "LunchRating": "NA",
  "ReviewNum": 16,
  "Lat": 34.9959244331732,
  "Long": 135.748266511467,
  "location": {
    "type": "Point",
    "coordinates": [
      null,
      null
    ]
  }
},
{
  "restaurantid": 5,
  "Name": "Shaofeiyan  ",
  "JapaneseName": "小肥羊 京都河原町店",
  "Station": "Kyoto Shiyakusho Mae",
  "FirstCategory": "Chinese hot pot / fire pot",
  "SecondCategory": "Chinese",
  "DinnerPrice": "￥4000～￥4999",
  "LunchPrice": "￥1000～￥1999",
  "TotalRating": 3.16,
  "DinnerRating": 3.16,
  "LunchRating": 3.05,
  "ReviewNum": 23,
  "Lat": 35.00790072262,
  "Long": 135.768201804433,
  "location": {
    "type": "Point",
    "coordinates": [
      null,
      null
    ]
  }
},
{
  "restaurantid": 6,
  "Name": "okuta-va  ",
  "JapaneseName": "OCTAVAR",
  "Station": "Kyoto",
  "FirstCategory": "Bar",
  "SecondCategory": "Italian",
  "DinnerPrice": "￥4000～￥4999",
  "LunchPrice": "￥1000～￥1999",
  "TotalRating": 3.08,
  "DinnerRating": 3,
  "LunchRating": 3.11,
  "ReviewNum": 24,
  "Lat": 34.9834970882448,
  "Long": 135.760559396056,
  "location": {
    "type": "Point",
    "coordinates": [
      null,
      null
    ]
  }
},
{
  "restaurantid": 7,
  "Name": "Resort dining&bar HaLe  ",
  "JapaneseName": "Resort dining&bar HaLe 河原町店",
  "Station": "Sanjo",
  "FirstCategory": "Italian",
  "SecondCategory": "Bar",
  "DinnerPrice": "￥3000～￥3999",
  "LunchPrice": "￥1000～￥1999",
  "TotalRating": 3.04,
  "DinnerRating": 3.05,
  "LunchRating": 3,
  "ReviewNum": 22,
  "Lat": 35.0071947091437,
  "Long": 135.769468120661,
  "location": {
    "type": "Point",
    "coordinates": [
      null,
      null
    ]
  }
},
{
  "restaurantid": 8,
  "Name": "Sumika  ",
  "JapaneseName": "棲家",
  "Station": "Kawaramachi",
  "FirstCategory": "Izakaya (Tavern)",
  "SecondCategory": "Creative cuisine",
  "DinnerPrice": "￥3000～￥3999",
  "LunchPrice": "NA",
  "TotalRating": 3.34,
  "DinnerRating": 3.34,
  "LunchRating": "NA",
  "ReviewNum": 23,
  "Lat": 35.0047040863454,
  "Long": 135.770182117381,
  "location": {
    "type": "Point",
    "coordinates": [
      null,
      null
    ]
  }
},
{
  "restaurantid": 9,
  "Name": "Gayagaya  ",
  "JapaneseName": "我家我家",
  "Station": "Sanjo",
  "FirstCategory": "Izakaya (Tavern)",
  "SecondCategory": "Bar",
  "DinnerPrice": "￥3000～￥3999",
  "LunchPrice": "NA",
  "TotalRating": 3.03,
  "DinnerRating": 3.04,
  "LunchRating": "NA",
  "ReviewNum": 3,
  "Lat": 35.0071741645137,
  "Long": 135.76996780233,
  "location": {
    "type": "Point",
    "coordinates": [
      null,
      null
    ]
  }
},
{
  "restaurantid": 10,
  "Name": "Ishibekoujimamecha  ",
  "JapaneseName": "石塀小路 豆ちゃ 京都",
  "Station": "Gion Shijo",
  "FirstCategory": "Izakaya (Tavern)",
  "SecondCategory": "Kyoto Cuisine",
  "DinnerPrice": "￥4000～￥4999",
  "LunchPrice": "NA",
  "TotalRating": 3.56,
  "DinnerRating": 3.56,
  "LunchRating": "NA",
  "ReviewNum": 92,
  "Lat": 35.0008130609394,
  "Long": 135.779155387735,
  "location": {
    "type": "Point",
    "coordinates": [
      null,
      null
    ]
  }
},
{
  "restaurantid": 11,
  "Name": "nagoyako-chintokoshitsuizakayatorisai  ",
  "JapaneseName": "名古屋コーチンと個室居酒屋 鶏彩 河原町店",
  "Station": "Sanjo",
  "FirstCategory": "Izakaya (Tavern)",
  "SecondCategory": "Japanese food (other)",
  "DinnerPrice": "￥3000～￥3999",
  "LunchPrice": "NA",
  "TotalRating": 3.04,
  "DinnerRating": 3.04,
  "LunchRating": "NA",
  "ReviewNum": 4,
  "Lat": 35.0073957953599,
  "Long": 135.769274238615,
  "location": {
    "type": "Point",
    "coordinates": [
      null,
      null
    ]
  }
},
{
  "restaurantid": 12,
  "Name": "Gionabesu  ",
  "JapaneseName": "祇園 Abbesses",
  "Station": "Gion Shijo",
  "FirstCategory": "French",
  "SecondCategory": "Italian",
  "DinnerPrice": "￥8000～￥9999",
  "LunchPrice": "￥6000～￥7999",
  "TotalRating": 3.58,
  "DinnerRating": 3.54,
  "LunchRating": 3.56,
  "ReviewNum": 120,
  "Lat": 35.0019536965639,
  "Long": 135.774821250723,
  "location": {
    "type": "Point",
    "coordinates": [
      null,
      null
    ]
  }
},
{
  "restaurantid": 13,
  "Name": "nishikimachinoakarishoutengai  ",
  "JapaneseName": "錦 街の灯り商店街",
  "Station": "Karasuma",
  "FirstCategory": "Izakaya (Tavern)",
  "SecondCategory": "Bar",
  "DinnerPrice": "￥2000～￥2999",
  "LunchPrice": "￥2000～￥2999",
  "TotalRating": 3,
  "DinnerRating": 3,
  "LunchRating": "NA",
  "ReviewNum": 2,
  "Lat": 35.0051631289148,
  "Long": 135.76197633639,
  "location": {
    "type": "Point",
    "coordinates": [
      null,
      null
    ]
  }
},
{
  "restaurantid": 14,
  "Name": "gionni-yongo  ",
  "JapaneseName": "祗園245",
  "Station": "Sanjo Keihan",
  "FirstCategory": "Italian",
  "SecondCategory": "French",
  "DinnerPrice": "￥10000～￥14999",
  "LunchPrice": "￥6000～￥7999",
  "TotalRating": 3.85,
  "DinnerRating": 3.83,
  "LunchRating": 3.75,
  "ReviewNum": 39,
  "Lat": 35.0063010233471,
  "Long": 135.775622650675,
  "location": {
    "type": "Point",
    "coordinates": [
      null,
      null
    ]
  }
},
{
  "restaurantid": 15,
  "Name": "Mumon  ",
  "JapaneseName": "無門 三条室町店",
  "Station": "Karasuma Oike",
  "FirstCategory": "Shabu Shabu (Japanese Steamboat)",
  "SecondCategory": "Fugu (Blowfish)",
  "DinnerPrice": "￥5000～￥5999",
  "LunchPrice": " ～￥999",
  "TotalRating": 3.05,
  "DinnerRating": 3.05,
  "LunchRating": "NA",
  "ReviewNum": 13,
  "Lat": 35.0093348325975,
  "Long": 135.757835377113,
  "location": {
    "type": "Point",
    "coordinates": [
      null,
      null
    ]
  }
},
{
  "restaurantid": 16,
  "Name": "itariandainingutoreotto  ",
  "JapaneseName": "イタリアンダイニングTREOTTO 西院店",
  "Station": "Saiin",
  "FirstCategory": "Italian",
  "SecondCategory": "Dining bar",
  "DinnerPrice": "￥3000～￥3999",
  "LunchPrice": "NA",
  "TotalRating": 3.04,
  "DinnerRating": 3.04,
  "LunchRating": 3.03,
  "ReviewNum": 2,
  "Lat": 35.0037285790702,
  "Long": 135.731255064949,
  "location": {
    "type": "Point",
    "coordinates": [
      null,
      null
    ]
  }
},
{
  "restaurantid": 17,
  "Name": "Sukiyakisunibiizakayahokuto  ",
  "JapaneseName": "すき焼き炭火居酒屋 北斗",
  "Station": "Kyoto",
  "FirstCategory": "Sukiyaki",
  "SecondCategory": "Yakitori (Grilled chicken)",
  "DinnerPrice": "￥3000～￥3999",
  "LunchPrice": "NA",
  "TotalRating": 3.09,
  "DinnerRating": 3.1,
  "LunchRating": "NA",
  "ReviewNum": 19,
  "Lat": 34.9890645141595,
  "Long": 135.758604579846,
  "location": {
    "type": "Point",
    "coordinates": [
      null,
      null
    ]
  }
},
{
  "restaurantid": 18,
  "Name": "Sakaean  ",
  "JapaneseName": "さかえ庵",
  "Station": "Karasuma",
  "FirstCategory": "Izakaya (Tavern)",
  "SecondCategory": "Nihonshu (Japanese sake)",
  "DinnerPrice": "￥2000～￥2999",
  "LunchPrice": " ～￥999",
  "TotalRating": 3.09,
  "DinnerRating": 3.1,
  "LunchRating": 3.06,
  "ReviewNum": 31,
  "Lat": 35.0046837389483,
  "Long": 135.762414099884,
  "location": {
    "type": "Point",
    "coordinates": [
      null,
      null
    ]
  }
},
{
  "restaurantid": 19,
  "Name": "biakicchinnikubarujikabiyajikabiya  ",
  "JapaneseName": "ビアキッチン肉バル ジカビヤ 京都河原町店",
  "Station": "Kawaramachi",
  "FirstCategory": "Bar",
  "SecondCategory": "Izakaya (Tavern)",
  "DinnerPrice": "￥3000～￥3999",
  "LunchPrice": "￥1000～￥1999",
  "TotalRating": 3.06,
  "DinnerRating": 3.06,
  "LunchRating": "NA",
  "ReviewNum": 21,
  "Lat": 35.0062692440335,
  "Long": 135.768979037223,
  "location": {
    "type": "Point",
    "coordinates": [
      null,
      null
    ]
  }
},
{
  "restaurantid": 20,
  "Name": "ANAGOYA NORESORE  ",
  "JapaneseName": "穴子家 NORESORE 京都本店",
  "Station": "Nijojo Mae",
  "FirstCategory": "Izakaya (Tavern)",
  "SecondCategory": "Seafood",
  "DinnerPrice": "￥5000～￥5999",
  "LunchPrice": "￥2000～￥2999",
  "TotalRating": 3.5,
  "DinnerRating": 3.07,
  "LunchRating": 3.55,
  "ReviewNum": 16,
  "Lat": 35.0125846891279,
  "Long": 135.753619466503,
  "location": {
    "type": "Point",
    "coordinates": [
      null,
      null
    ]
  }
},
{
  "restaurantid": 21,
  "Name": "bejo-tamucho  ",
  "JapaneseName": "ベジョータ ムチョ 室町店",
  "Station": "Shijo",
  "FirstCategory": "Spain",
  "SecondCategory": "Izakaya (Tavern)",
  "DinnerPrice": "￥3000～￥3999",
  "LunchPrice": "NA",
  "TotalRating": 3.16,
  "DinnerRating": 3.16,
  "LunchRating": "NA",
  "ReviewNum": 18,
  "Lat": 35.0013862396802,
  "Long": 135.757912125595,
  "location": {
    "type": "Point",
    "coordinates": [
      null,
      null
    ]
  }
},
{
  "restaurantid": 22,
  "Name": "TENTATION  ",
  "JapaneseName": "タンタシオン",
  "Station": "Sanjo",
  "FirstCategory": "Bistro",
  "SecondCategory": "Italian",
  "DinnerPrice": "￥4000～￥4999",
  "LunchPrice": "NA",
  "TotalRating": 3.06,
  "DinnerRating": 3.06,
  "LunchRating": "NA",
  "ReviewNum": 3,
  "Lat": 35.009557804073,
  "Long": 135.770289888056,
  "location": {
    "type": "Point",
    "coordinates": [
      null,
      null
    ]
  }
},
{
  "restaurantid": 23,
  "Name": "Izakayariraku  ",
  "JapaneseName": "居酒屋 りらく",
  "Station": "Karasuma",
  "FirstCategory": "Yakitori (Grilled chicken)",
  "SecondCategory": "Fowl",
  "DinnerPrice": "￥3000～￥3999",
  "LunchPrice": "NA",
  "TotalRating": 3.03,
  "DinnerRating": 3.03,
  "LunchRating": "NA",
  "ReviewNum": 24,
  "Lat": 35.0025714742237,
  "Long": 135.762694729386,
  "location": {
    "type": "Point",
    "coordinates": [
      null,
      null
    ]
  }
},
{
  "restaurantid": 24,
  "Name": "kyoutohyouto  ",
  "JapaneseName": "京都 瓢斗 京都店",
  "Station": "Karasuma",
  "FirstCategory": "Pork Shabu Shabu",
  "SecondCategory": "Shabu Shabu (Japanese Steamboat)",
  "DinnerPrice": "￥8000～￥9999",
  "LunchPrice": "￥2000～￥2999",
  "TotalRating": 3.64,
  "DinnerRating": 3.66,
  "LunchRating": 3.58,
  "ReviewNum": 46,
  "Lat": 35.0055907972466,
  "Long": 135.758329397355,
  "location": {
    "type": "Point",
    "coordinates": [
      null,
      null
    ]
  }
},
{
  "restaurantid": 25,
  "Name": "Robatayagaburi  ",
  "JapaneseName": "炉端屋 がぶり",
  "Station": "Karasuma",
  "FirstCategory": "Izakaya (Tavern)",
  "SecondCategory": "Seafood",
  "DinnerPrice": "￥4000～￥4999",
  "LunchPrice": "NA",
  "TotalRating": 3.09,
  "DinnerRating": 3.09,
  "LunchRating": "NA",
  "ReviewNum": 16,
  "Lat": 35.00651710655,
  "Long": 135.759445373136,
  "location": {
    "type": "Point",
    "coordinates": [
      null,
      null
    ]
  }
},
{
  "restaurantid": 26,
  "Name": "Kushiyachouemon  ",
  "JapaneseName": "長右衛門 京都烏丸店",
  "Station": "Karasuma",
  "FirstCategory": "Izakaya (Tavern)",
  "SecondCategory": "Yakitori (Grilled chicken)",
  "DinnerPrice": "￥3000～￥3999",
  "LunchPrice": " ～￥999",
  "TotalRating": 3.03,
  "DinnerRating": 3.03,
  "LunchRating": 3.02,
  "ReviewNum": 10,
  "Lat": 35.0050884162122,
  "Long": 135.762063832564,
  "location": {
    "type": "Point",
    "coordinates": [
      null,
      null
    ]
  }
},
{
  "restaurantid": 27,
  "Name": "Torattoriaviare  ",
  "JapaneseName": "トラットリアヴィアーレ 京都本店",
  "Station": "Kiyomizu Gojo",
  "FirstCategory": "Italian",
  "SecondCategory": "Western Cuisine",
  "DinnerPrice": "￥5000～￥5999",
  "LunchPrice": "￥1000～￥1999",
  "TotalRating": 3.44,
  "DinnerRating": 3.3,
  "LunchRating": 3.31,
  "ReviewNum": 33,
  "Lat": 34.9985422700966,
  "Long": 135.767682833969,
  "location": {
    "type": "Point",
    "coordinates": [
      null,
      null
    ]
  }
},
{
  "restaurantid": 28,
  "Name": "Komefuku  ",
  "JapaneseName": "米福 京都木屋町",
  "Station": "Sanjo",
  "FirstCategory": "Tempura",
  "SecondCategory": "Seafood",
  "DinnerPrice": "￥3000～￥3999",
  "LunchPrice": "NA",
  "TotalRating": 3.06,
  "DinnerRating": 3.06,
  "LunchRating": "NA",
  "ReviewNum": 10,
  "Lat": 35.0082946127223,
  "Long": 135.770683246881,
  "location": {
    "type": "Point",
    "coordinates": [
      null,
      null
    ]
  }
},
{
  "restaurantid": 29,
  "Name": "Togiya  ",
  "JapaneseName": "十祇家 木屋町御池店",
  "Station": "Kyoto Shiyakusho Mae",
  "FirstCategory": "Izakaya (Tavern)",
  "SecondCategory": "Chinese",
  "DinnerPrice": "￥3000～￥3999",
  "LunchPrice": "￥1000～￥1999",
  "TotalRating": 3.08,
  "DinnerRating": 3.08,
  "LunchRating": "NA",
  "ReviewNum": 23,
  "Lat": 35.0118284045243,
  "Long": 135.770861402716,
  "location": {
    "type": "Point",
    "coordinates": [
      null,
      null
    ]
  }
},
{
  "restaurantid": 30,
  "Name": "kushiyakimanten  ",
  "JapaneseName": "串焼 満天 先斗町店",
  "Station": "Sanjo",
  "FirstCategory": "Yakitori (Grilled chicken)",
  "SecondCategory": "Kyoto Cuisine",
  "DinnerPrice": "￥3000～￥3999",
  "LunchPrice": "NA",
  "TotalRating": 3.35,
  "DinnerRating": 3.35,
  "LunchRating": 3.04,
  "ReviewNum": 14,
  "Lat": 35.0079613206178,
  "Long": 135.771002680142,
  "location": {
    "type": "Point",
    "coordinates": [
      null,
      null
    ]
  }
},
{
  "restaurantid": 31,
  "Name": "Kurogewagyuutenshou  ",
  "JapaneseName": "黒毛和牛 天正",
  "Station": "Marutamachi",
  "FirstCategory": "Yakiniku (BBQ Beef)",
  "SecondCategory": "Sukiyaki",
  "DinnerPrice": "￥5000～￥5999",
  "LunchPrice": " ～￥999",
  "TotalRating": 3.5,
  "DinnerRating": 3.47,
  "LunchRating": 3.16,
  "ReviewNum": 13,
  "Lat": 35.0146637512369,
  "Long": 135.760364643926,
  "location": {
    "type": "Point",
    "coordinates": [
      null,
      null
    ]
  }
},
{
  "restaurantid": 32,
  "Name": "Chizutakkarubikoshitsubaruvino  ",
  "JapaneseName": "チーズタッカルビ×個室 バル・ヴィーノ",
  "Station": "Sanjo",
  "FirstCategory": "Izakaya (Tavern)",
  "SecondCategory": "Dining bar",
  "DinnerPrice": "￥2000～￥2999",
  "LunchPrice": "NA",
  "TotalRating": 3.17,
  "DinnerRating": 3.17,
  "LunchRating": "NA",
  "ReviewNum": 10,
  "Lat": 35.0073894081148,
  "Long": 135.769329234342,
  "location": {
    "type": "Point",
    "coordinates": [
      null,
      null
    ]
  }
},
{
  "restaurantid": 33,
  "Name": "teppandainingukyoushikian  ",
  "JapaneseName": "鉄板ダイニング 京四季庵",
  "Station": "Gion Shijo",
  "FirstCategory": "Teppanyaki",
  "SecondCategory": "Steak",
  "DinnerPrice": "￥5000～￥5999",
  "LunchPrice": "NA",
  "TotalRating": 3.06,
  "DinnerRating": 3.06,
  "LunchRating": "NA",
  "ReviewNum": 16,
  "Lat": 35.0050871864524,
  "Long": 135.771166409986,
  "location": {
    "type": "Point",
    "coordinates": [
      null,
      null
    ]
  }
},
{
  "restaurantid": 34,
  "Name": "Yasuma  ",
  "JapaneseName": "靖馬",
  "Station": "Kawaramachi",
  "FirstCategory": "Izakaya (Tavern)",
  "SecondCategory": "Kyoto Cuisine",
  "DinnerPrice": "￥3000～￥3999",
  "LunchPrice": "NA",
  "TotalRating": 3.02,
  "DinnerRating": 3.02,
  "LunchRating": "NA",
  "ReviewNum": 26,
  "Lat": 35.004371682583,
  "Long": 135.769744061055,
  "location": {
    "type": "Point",
    "coordinates": [
      null,
      null
    ]
  }
},
{
  "restaurantid": 35,
  "Name": "In the Soup.  ",
  "JapaneseName": "in the Soup.",
  "Station": "Gion Shijo",
  "FirstCategory": "Bar",
  "SecondCategory": "Bistro",
  "DinnerPrice": "￥3000～￥3999",
  "LunchPrice": "￥1000～￥1999",
  "TotalRating": 3.02,
  "DinnerRating": 3.03,
  "LunchRating": "NA",
  "ReviewNum": 5,
  "Lat": 35.004126761561,
  "Long": 135.772765765823,
  "location": {
    "type": "Point",
    "coordinates": [
      null,
      null
    ]
  }
},
{
  "restaurantid": 36,
  "Name": "Gionyakinikukokoro  ",
  "JapaneseName": "祇園焼肉 志",
  "Station": "Gion Shijo",
  "FirstCategory": "Yakiniku (BBQ Beef)",
  "SecondCategory": "Horumon (BBQ Offel)",
  "DinnerPrice": "￥5000～￥5999",
  "LunchPrice": "NA",
  "TotalRating": 3.06,
  "DinnerRating": 3.06,
  "LunchRating": "NA",
  "ReviewNum": 5,
  "Lat": 35.0056702531591,
  "Long": 135.775375200267,
  "location": {
    "type": "Point",
    "coordinates": [
      null,
      null
    ]
  }
},
{
  "restaurantid": 37,
  "Name": "daininguba-daburyu-  ",
  "JapaneseName": "Dining Bar W",
  "Station": "Gion Shijo",
  "FirstCategory": "Kappo (Traditional Japanese)",
  "SecondCategory": "Steak",
  "DinnerPrice": "￥4000～￥4999",
  "LunchPrice": "NA",
  "TotalRating": 3.25,
  "DinnerRating": 3.25,
  "LunchRating": "NA",
  "ReviewNum": 17,
  "Lat": 35.0051366514701,
  "Long": 135.772647118069,
  "location": {
    "type": "Point",
    "coordinates": [
      null,
      null
    ]
  }
},
{
  "restaurantid": 38,
  "Name": "Kyoutodaina  ",
  "JapaneseName": "京都ダイナー",
  "Station": "Karasuma",
  "FirstCategory": "Bistro",
  "SecondCategory": "Bar",
  "DinnerPrice": "￥3000～￥3999",
  "LunchPrice": "￥2000～￥2999",
  "TotalRating": 3.54,
  "DinnerRating": 3.53,
  "LunchRating": 3.32,
  "ReviewNum": 82,
  "Lat": 35.0053067461152,
  "Long": 135.763880776774,
  "location": {
    "type": "Point",
    "coordinates": [
      null,
      null
    ]
  }
},
{
  "restaurantid": 39,
  "Name": "Zasoudouhigashiyamakyouto  ",
  "JapaneseName": "THE SODOH HIGASHIYAMA KYOTO",
  "Station": "Gion Shijo",
  "FirstCategory": "Italian",
  "SecondCategory": "Pasta",
  "DinnerPrice": "￥6000～￥7999",
  "LunchPrice": "￥2000～￥2999",
  "TotalRating": 3.61,
  "DinnerRating": 3.61,
  "LunchRating": 3.58,
  "ReviewNum": 272,
  "Lat": 34.9988963304625,
  "Long": 135.779667933418,
  "location": {
    "type": "Point",
    "coordinates": [
      null,
      null
    ]
  }
},
{
  "restaurantid": 40,
  "Name": "Gokyou  ",
  "JapaneseName": "牛京 東九条店",
  "Station": "Jujo",
  "FirstCategory": "Yakiniku (BBQ Beef)",
  "SecondCategory": "Horumon (BBQ Offel)",
  "DinnerPrice": "￥3000～￥3999",
  "LunchPrice": "NA",
  "TotalRating": 3.04,
  "DinnerRating": 3.04,
  "LunchRating": "NA",
  "ReviewNum": 2,
  "Lat": 34.9754043250388,
  "Long": 135.759545963938,
  "location": {
    "type": "Point",
    "coordinates": [
      null,
      null
    ]
  }
},
{
  "restaurantid": 41,
  "Name": "Ichifuji  ",
  "JapaneseName": "一知富士",
  "Station": "Shijo",
  "FirstCategory": "Izakaya (Tavern)",
  "SecondCategory": "Kappo (Traditional Japanese)",
  "DinnerPrice": "￥4000～￥4999",
  "LunchPrice": "NA",
  "TotalRating": 3.05,
  "DinnerRating": 3.05,
  "LunchRating": "NA",
  "ReviewNum": 12,
  "Lat": 35.0013745798691,
  "Long": 135.758233210577,
  "location": {
    "type": "Point",
    "coordinates": [
      null,
      null
    ]
  }
},
{
  "restaurantid": 42,
  "Name": "Tsukihikarasuma  ",
  "JapaneseName": "月陽 KARASUMA",
  "Station": "Shijo",
  "FirstCategory": "Izakaya (Tavern)",
  "SecondCategory": "Creative cuisine",
  "DinnerPrice": "￥4000～￥4999",
  "LunchPrice": "￥1000～￥1999",
  "TotalRating": 3.17,
  "DinnerRating": 3.17,
  "LunchRating": 3.03,
  "ReviewNum": 35,
  "Lat": 35.0014042831755,
  "Long": 135.757332172929,
  "location": {
    "type": "Point",
    "coordinates": [
      null,
      null
    ]
  }
},
{
  "restaurantid": 43,
  "Name": "Kyoutotempuraendou  ",
  "JapaneseName": "京都 天ぷら圓堂 岡崎邸",
  "Station": "Higashiyama",
  "FirstCategory": "Tempura",
  "SecondCategory": "Kaiseki (Traditional Japanese)",
  "DinnerPrice": "￥10000～￥14999",
  "LunchPrice": "￥5000～￥5999",
  "TotalRating": 3.55,
  "DinnerRating": 3.45,
  "LunchRating": 3.59,
  "ReviewNum": 6,
  "Lat": 35.016166715603,
  "Long": 135.78025014546,
  "location": {
    "type": "Point",
    "coordinates": [
      null,
      null
    ]
  }
},
{
  "restaurantid": 44,
  "Name": "Resutoraniro  ",
  "JapaneseName": "restaurant IRO",
  "Station": "Karasuma",
  "FirstCategory": "Izakaya (Tavern)",
  "SecondCategory": "Creative cuisine",
  "DinnerPrice": "￥4000～￥4999",
  "LunchPrice": "NA",
  "TotalRating": 3.08,
  "DinnerRating": 3.08,
  "LunchRating": "NA",
  "ReviewNum": 31,
  "Lat": 35.0029150541461,
  "Long": 135.763259341262,
  "location": {
    "type": "Point",
    "coordinates": [
      null,
      null
    ]
  }
},
{
  "restaurantid": 45,
  "Name": "Shuteimichiya  ",
  "JapaneseName": "酒亭 道や",
  "Station": "Karasuma Oike",
  "FirstCategory": "Izakaya (Tavern)",
  "SecondCategory": "Seafood",
  "DinnerPrice": "￥5000～￥5999",
  "LunchPrice": " ～￥999",
  "TotalRating": 3.06,
  "DinnerRating": 3.06,
  "LunchRating": "NA",
  "ReviewNum": 1,
  "Lat": 35.0133219216821,
  "Long": 135.758725397401,
  "location": {
    "type": "Point",
    "coordinates": [
      null,
      null
    ]
  }
},
{
  "restaurantid": 46,
  "Name": "Trattoria La Pace  ",
  "JapaneseName": "トラットリア ラパーチェ",
  "Station": "Karasuma",
  "FirstCategory": "Italian",
  "SecondCategory": "Pizza",
  "DinnerPrice": "￥4000～￥4999",
  "LunchPrice": "￥1000～￥1999",
  "TotalRating": 3.51,
  "DinnerRating": 3.3,
  "LunchRating": 3.51,
  "ReviewNum": 52,
  "Lat": 35.0052600869409,
  "Long": 135.763347606931,
  "location": {
    "type": "Point",
    "coordinates": [
      null,
      null
    ]
  }
},
{
  "restaurantid": 47,
  "Name": "Izakayabambu  ",
  "JapaneseName": "居酒屋 バンブー 京都駅前",
  "Station": "Kyoto",
  "FirstCategory": "Izakaya (Tavern)",
  "SecondCategory": "Kappo (Traditional Japanese)",
  "DinnerPrice": "￥3000～￥3999",
  "LunchPrice": "NA",
  "TotalRating": 3.02,
  "DinnerRating": 3.02,
  "LunchRating": "NA",
  "ReviewNum": 20,
  "Lat": 34.98456517764,
  "Long": 135.753134407968,
  "location": {
    "type": "Point",
    "coordinates": [
      null,
      null
    ]
  }
},
{
  "restaurantid": 48,
  "Name": "Peppa  ",
  "JapaneseName": "ペッパー",
  "Station": "Kawaramachi",
  "FirstCategory": "Okinawan Cuisine",
  "SecondCategory": "Izakaya (Tavern)",
  "DinnerPrice": "￥3000～￥3999",
  "LunchPrice": "NA",
  "TotalRating": 3.08,
  "DinnerRating": 3.09,
  "LunchRating": "NA",
  "ReviewNum": 11,
  "Lat": 35.0051163351892,
  "Long": 135.770318423513,
  "location": {
    "type": "Point",
    "coordinates": [
      null,
      null
    ]
  }
},
{
  "restaurantid": 49,
  "Name": "Banikuryourisemmontenumayarou  ",
  "JapaneseName": "馬肉料理専門店　馬野郎",
  "Station": "Kawaramachi",
  "FirstCategory": "Yakiniku (BBQ Beef)",
  "SecondCategory": "Shabu Shabu (Japanese Steamboat)",
  "DinnerPrice": "￥3000～￥3999",
  "LunchPrice": "NA",
  "TotalRating": 3.51,
  "DinnerRating": 3.51,
  "LunchRating": "NA",
  "ReviewNum": 52,
  "Lat": 35.0047958114895,
  "Long": 135.770292758504,
  "location": {
    "type": "Point",
    "coordinates": [
      null,
      null
    ]
  }
},
{
  "restaurantid": 50,
  "Name": "Teppanryourihanaroku  ",
  "JapaneseName": "鉄板料理 花六",
  "Station": "Gojo",
  "FirstCategory": "Teppanyaki",
  "SecondCategory": "Kyoto Cuisine",
  "DinnerPrice": "￥10000～￥14999",
  "LunchPrice": "NA",
  "TotalRating": 3.47,
  "DinnerRating": 3.47,
  "LunchRating": "NA",
  "ReviewNum": 2,
  "Lat": 34.9934590606226,
  "Long": 135.759549576809,
  "location": {
    "type": "Point",
    "coordinates": [
      null,
      null
    ]
  }
},
{
  "restaurantid": 51,
  "Name": "Kyoutohanabi  ",
  "JapaneseName": "京都ハナビ",
  "Station": "Karasuma",
  "FirstCategory": "Izakaya (Tavern)",
  "SecondCategory": "Japanese food (other)",
  "DinnerPrice": "￥2000～￥2999",
  "LunchPrice": "NA",
  "TotalRating": 3.12,
  "DinnerRating": 3.12,
  "LunchRating": "NA",
  "ReviewNum": 25,
  "Lat": 35.0026723205949,
  "Long": 135.762557509078,
  "location": {
    "type": "Point",
    "coordinates": [
      null,
      null
    ]
  }
},
{
  "restaurantid": 52,
  "Name": "Kyoutohananomai  ",
  "JapaneseName": "京都 花の舞",
  "Station": "Kyoto",
  "FirstCategory": "Izakaya (Tavern)",
  "SecondCategory": "Seafood",
  "DinnerPrice": "￥3000～￥3999",
  "LunchPrice": " ～￥999",
  "TotalRating": 3.04,
  "DinnerRating": 3.04,
  "LunchRating": "NA",
  "ReviewNum": 11,
  "Lat": 34.9867909098527,
  "Long": 135.760974487706,
  "location": {
    "type": "Point",
    "coordinates": [
      null,
      null
    ]
  }
},
{
  "restaurantid": 53,
  "Name": "pontochoutanrakuyatoriume  ",
  "JapaneseName": "先斗町 炭楽屋とりうめ",
  "Station": "Sanjo",
  "FirstCategory": "Yakitori (Grilled chicken)",
  "SecondCategory": "Izakaya (Tavern)",
  "DinnerPrice": "￥4000～￥4999",
  "LunchPrice": "NA",
  "TotalRating": 3.05,
  "DinnerRating": 3.05,
  "LunchRating": "NA",
  "ReviewNum": 7,
  "Lat": 35.0076732995129,
  "Long": 135.771211287189,
  "location": {
    "type": "Point",
    "coordinates": [
      null,
      null
    ]
  }
},
{
  "restaurantid": 54,
  "Name": "Osakanadekoboko  ",
  "JapaneseName": "御肴 凸鉾",
  "Station": "Kyoto",
  "FirstCategory": "Izakaya (Tavern)",
  "SecondCategory": "Seafood",
  "DinnerPrice": "￥3000～￥3999",
  "LunchPrice": "NA",
  "TotalRating": 3.42,
  "DinnerRating": 3.42,
  "LunchRating": "NA",
  "ReviewNum": 18,
  "Lat": 34.9897025458045,
  "Long": 135.761142673015,
  "location": {
    "type": "Point",
    "coordinates": [
      null,
      null
    ]
  }
},
{
  "restaurantid": 55,
  "Name": "Sunny  ",
  "JapaneseName": "Sunny",
  "Station": "Sanjo",
  "FirstCategory": "Dining bar",
  "SecondCategory": "Steak",
  "DinnerPrice": "￥3000～￥3999",
  "LunchPrice": "￥1000～￥1999",
  "TotalRating": 3.48,
  "DinnerRating": 3.33,
  "LunchRating": 3.35,
  "ReviewNum": 39,
  "Lat": 35.0088126166557,
  "Long": 135.770899871707,
  "location": {
    "type": "Point",
    "coordinates": [
      null,
      null
    ]
  }
},
{
  "restaurantid": 56,
  "Name": "Gochiya  ",
  "JapaneseName": "ご馳家",
  "Station": "Kyoto",
  "FirstCategory": "Izakaya (Tavern)",
  "SecondCategory": "Creative cuisine",
  "DinnerPrice": "￥3000～￥3999",
  "LunchPrice": " ～￥999",
  "TotalRating": 3.18,
  "DinnerRating": 3.13,
  "LunchRating": 3.1,
  "ReviewNum": 33,
  "Lat": 34.9884404609588,
  "Long": 135.761279108682,
  "location": {
    "type": "Point",
    "coordinates": [
      null,
      null
    ]
  }
},
{
  "restaurantid": 57,
  "Name": "Shusaijoujou  ",
  "JapaneseName": "酒菜 乗々",
  "Station": "Kyoto",
  "FirstCategory": "Creative cuisine",
  "SecondCategory": "Izakaya (Tavern)",
  "DinnerPrice": "￥5000～￥5999",
  "LunchPrice": "NA",
  "TotalRating": 3.03,
  "DinnerRating": 3.03,
  "LunchRating": 3.03,
  "ReviewNum": 12,
  "Lat": 34.9883648466884,
  "Long": 135.755297868851,
  "location": {
    "type": "Point",
    "coordinates": [
      null,
      null
    ]
  }
},
{
  "restaurantid": 58,
  "Name": "o-rudeidainingukaza  ",
  "JapaneseName": "オールデイダイニング カザ",
  "Station": "Kyoto",
  "FirstCategory": "Buffet style",
  "SecondCategory": "Cafe",
  "DinnerPrice": "￥4000～￥4999",
  "LunchPrice": "￥2000～￥2999",
  "TotalRating": 3.41,
  "DinnerRating": 3.08,
  "LunchRating": 3.52,
  "ReviewNum": 15,
  "Lat": 34.9861608292917,
  "Long": 135.752504109069,
  "location": {
    "type": "Point",
    "coordinates": [
      null,
      null
    ]
  }
},
{
  "restaurantid": 59,
  "Name": "Yakinikudainingukinoe  ",
  "JapaneseName": "焼肉ダイニング 甲",
  "Station": "Kyoto Shiyakusho Mae",
  "FirstCategory": "Yakiniku (BBQ Beef)",
  "SecondCategory": "Korean cuisine",
  "DinnerPrice": "￥5000～￥5999",
  "LunchPrice": "NA",
  "TotalRating": 3.58,
  "DinnerRating": 3.57,
  "LunchRating": 3.51,
  "ReviewNum": 39,
  "Lat": 35.0122604635406,
  "Long": 135.764163605741,
  "location": {
    "type": "Point",
    "coordinates": [
      null,
      null
    ]
  }
},
{
  "restaurantid": 60,
  "Name": "Manjirou  ",
  "JapaneseName": "萬治郎",
  "Station": "Gion Shijo",
  "FirstCategory": "Kaiseki (Traditional Japanese)",
  "SecondCategory": "Kyoto Cuisine",
  "DinnerPrice": "￥10000～￥14999",
  "LunchPrice": "￥3000～￥3999",
  "TotalRating": 3.57,
  "DinnerRating": 3.54,
  "LunchRating": 3.53,
  "ReviewNum": 57,
  "Lat": 35.0017457541648,
  "Long": 135.780026105812,
  "location": {
    "type": "Point",
    "coordinates": [
      null,
      null
    ]
  }
},
{
  "restaurantid": 61,
  "Name": "Sakayaagurema  ",
  "JapaneseName": "酒彩 あぐれま",
  "Station": "Sanjo",
  "FirstCategory": "Izakaya (Tavern)",
  "SecondCategory": "Sukiyaki",
  "DinnerPrice": "￥4000～￥4999",
  "LunchPrice": "NA",
  "TotalRating": 3.03,
  "DinnerRating": 3.03,
  "LunchRating": "NA",
  "ReviewNum": 9,
  "Lat": 35.0094078177675,
  "Long": 135.770155461682,
  "location": {
    "type": "Point",
    "coordinates": [
      null,
      null
    ]
  }
},
{
  "restaurantid": 62,
  "Name": "chuugokuryourichimmin  ",
  "JapaneseName": "中国料理 青冥 祇園店",
  "Station": "Gion Shijo",
  "FirstCategory": "Chinese",
  "SecondCategory": "Dim sum",
  "DinnerPrice": "￥5000～￥5999",
  "LunchPrice": "￥1000～￥1999",
  "TotalRating": 3.5,
  "DinnerRating": 3.21,
  "LunchRating": 3.52,
  "ReviewNum": 44,
  "Lat": 35.0041359664734,
  "Long": 135.775011689987,
  "location": {
    "type": "Point",
    "coordinates": [
      null,
      null
    ]
  }
},
{
  "restaurantid": 63,
  "Name": "Hanasaki  ",
  "JapaneseName": "花咲 錦店",
  "Station": "Karasuma",
  "FirstCategory": "Kyoto Cuisine",
  "SecondCategory": "Kaiseki (Traditional Japanese)",
  "DinnerPrice": "￥10000～￥14999",
  "LunchPrice": "￥4000～￥4999",
  "TotalRating": 3.58,
  "DinnerRating": 3.54,
  "LunchRating": 3.58,
  "ReviewNum": 30,
  "Lat": 35.0043996209478,
  "Long": 135.763205991643,
  "location": {
    "type": "Point",
    "coordinates": [
      null,
      null
    ]
  }
},
{
  "restaurantid": 64,
  "Name": "nikushokusakabagaru  ",
  "JapaneseName": "肉食酒場 garu",
  "Station": "Gion Shijo",
  "FirstCategory": "Bar",
  "SecondCategory": "Sumibiyaki",
  "DinnerPrice": "￥4000～￥4999",
  "LunchPrice": " ～￥999",
  "TotalRating": 3.04,
  "DinnerRating": 3.04,
  "LunchRating": "NA",
  "ReviewNum": 11,
  "Lat": 35.0048216518419,
  "Long": 135.77073951322,
  "location": {
    "type": "Point",
    "coordinates": [
      null,
      null
    ]
  }
},
{
  "restaurantid": 65,
  "Name": "furenchidainingutoppuobukyouto  ",
  "JapaneseName": "フレンチダイニング トップ オブ キョウト",
  "Station": "Kyoto",
  "FirstCategory": "French",
  "SecondCategory": "Restaurants (other)",
  "DinnerPrice": "￥10000～￥14999",
  "LunchPrice": "￥5000～￥5999",
  "TotalRating": 3.07,
  "DinnerRating": 3.07,
  "LunchRating": 3.06,
  "ReviewNum": 33,
  "Lat": 34.9861624957947,
  "Long": 135.752504942257,
  "location": {
    "type": "Point",
    "coordinates": [
      null,
      null
    ]
  }
},
{
  "restaurantid": 66,
  "Name": "takaradoukarasuma  ",
  "JapaneseName": "宝堂 KARASUMA",
  "Station": "Shijo",
  "FirstCategory": "Izakaya (Tavern)",
  "SecondCategory": "Sukiyaki",
  "DinnerPrice": "￥3000～￥3999",
  "LunchPrice": "NA",
  "TotalRating": 3.05,
  "DinnerRating": 3.05,
  "LunchRating": "NA",
  "ReviewNum": 4,
  "Lat": 35.0025347092754,
  "Long": 135.756842994842,
  "location": {
    "type": "Point",
    "coordinates": [
      null,
      null
    ]
  }
},
{
  "restaurantid": 67,
  "Name": "Ikedayahananomai  ",
  "JapaneseName": "池田屋　はなの舞",
  "Station": "Kyoto Shiyakusho Mae",
  "FirstCategory": "Izakaya (Tavern)",
  "SecondCategory": "Kyoto Cuisine",
  "DinnerPrice": "￥3000～￥3999",
  "LunchPrice": "NA",
  "TotalRating": 3.07,
  "DinnerRating": 3.08,
  "LunchRating": 3.06,
  "ReviewNum": 59,
  "Lat": 35.0088103660205,
  "Long": 135.769259452492,
  "location": {
    "type": "Point",
    "coordinates": [
      null,
      null
    ]
  }
},
{
  "restaurantid": 68,
  "Name": "Kyoutogiontempurayasakaendou  ",
  "JapaneseName": "京都祇園 天ぷら八坂圓堂",
  "Station": "Gion Shijo",
  "FirstCategory": "Tempura",
  "SecondCategory": "Kaiseki (Traditional Japanese)",
  "DinnerPrice": "￥10000～￥14999",
  "LunchPrice": "￥5000～￥5999",
  "TotalRating": 3.68,
  "DinnerRating": 3.64,
  "LunchRating": 3.68,
  "ReviewNum": 252,
  "Lat": 34.9989145822574,
  "Long": 135.77511164431,
  "location": {
    "type": "Point",
    "coordinates": [
      null,
      null
    ]
  }
},
{
  "restaurantid": 69,
  "Name": "Ryoumashamonoujou  ",
  "JapaneseName": "龍馬 軍鶏農場 京都駅前店",
  "Station": "Kyoto",
  "FirstCategory": "Izakaya (Tavern)",
  "SecondCategory": "Yakitori (Grilled chicken)",
  "DinnerPrice": "￥3000～￥3999",
  "LunchPrice": "NA",
  "TotalRating": 3,
  "DinnerRating": 3.01,
  "LunchRating": 3,
  "ReviewNum": 27,
  "Lat": 34.9880182697134,
  "Long": 135.7604672511,
  "location": {
    "type": "Point",
    "coordinates": [
      null,
      null
    ]
  }
},
{
  "restaurantid": 70,
  "Name": "Komefuku  ",
  "JapaneseName": "米福 四条烏丸",
  "Station": "Karasuma",
  "FirstCategory": "Tempura",
  "SecondCategory": "Ten-don (Tempura Bowl)",
  "DinnerPrice": "￥2000～￥2999",
  "LunchPrice": " ～￥999",
  "TotalRating": 3.55,
  "DinnerRating": 3.51,
  "LunchRating": 3.56,
  "ReviewNum": 140,
  "Lat": 35.0046062331496,
  "Long": 135.761353080459,
  "location": {
    "type": "Point",
    "coordinates": [
      null,
      null
    ]
  }
},
{
  "restaurantid": 71,
  "Name": "Gionkyouryourihanasaki  ",
  "JapaneseName": "祇園 京料理 花咲",
  "Station": "Gion Shijo",
  "FirstCategory": "Kyoto Cuisine",
  "SecondCategory": "Kaiseki (Traditional Japanese)",
  "DinnerPrice": "￥10000～￥14999",
  "LunchPrice": "￥4000～￥4999",
  "TotalRating": 3.5,
  "DinnerRating": 3.32,
  "LunchRating": 3.45,
  "ReviewNum": 56,
  "Lat": 35.001987605201,
  "Long": 135.776159471356,
  "location": {
    "type": "Point",
    "coordinates": [
      null,
      null
    ]
  }
},
{
  "restaurantid": 72,
  "Name": "Izakayashinoomiya  ",
  "JapaneseName": "はなまる串カツ製作所 大宮店",
  "Station": "Shijo Omiya",
  "FirstCategory": "Izakaya (Tavern)",
  "SecondCategory": "Kushi-age (Fried Skewer)",
  "DinnerPrice": "￥2000～￥2999",
  "LunchPrice": "NA",
  "TotalRating": 3.14,
  "DinnerRating": 3.14,
  "LunchRating": "NA",
  "ReviewNum": 30,
  "Lat": 35.0047962545949,
  "Long": 135.747841693829,
  "location": {
    "type": "Point",
    "coordinates": [
      null,
      null
    ]
  }
},
{
  "restaurantid": 73,
  "Name": "Ittetsugurache  ",
  "JapaneseName": "Ittetsu Grazie",
  "Station": "Karasuma",
  "FirstCategory": "Yakiniku (BBQ Beef)",
  "SecondCategory": "Bar",
  "DinnerPrice": "￥3000～￥3999",
  "LunchPrice": " ～￥999",
  "TotalRating": 3.52,
  "DinnerRating": 3.5,
  "LunchRating": 3.32,
  "ReviewNum": 33,
  "Lat": 35.0047036962275,
  "Long": 135.762538484634,
  "location": {
    "type": "Point",
    "coordinates": [
      null,
      null
    ]
  }
},
{
  "restaurantid": 74,
  "Name": "Ichishun  ",
  "JapaneseName": "一瞬",
  "Station": "Kyoto",
  "FirstCategory": "Izakaya (Tavern)",
  "SecondCategory": "Japanese food (other)",
  "DinnerPrice": "￥4000～￥4999",
  "LunchPrice": " ～￥999",
  "TotalRating": 3.53,
  "DinnerRating": 3.52,
  "LunchRating": 3.4,
  "ReviewNum": 72,
  "Lat": 34.9877799444932,
  "Long": 135.7594723447,
  "location": {
    "type": "Point",
    "coordinates": [
      null,
      null
    ]
  }
},
{
  "restaurantid": 75,
  "Name": "Nikokubaru  ",
  "JapaneseName": "ニューコクバル 京都山科店",
  "Station": "Keihan Yamashina",
  "FirstCategory": "Izakaya (Tavern)",
  "SecondCategory": "Kushi-age (Fried Skewer)",
  "DinnerPrice": "￥2000～￥2999",
  "LunchPrice": "NA",
  "TotalRating": 3.03,
  "DinnerRating": 3.03,
  "LunchRating": "NA",
  "ReviewNum": 15,
  "Lat": 34.9906070184028,
  "Long": 135.816001130938,
  "location": {
    "type": "Point",
    "coordinates": [
      null,
      null
    ]
  }
},
{
  "restaurantid": 76,
  "Name": "Teppansakuwan  ",
  "JapaneseName": "鉄板 さくわん",
  "Station": "Saiin",
  "FirstCategory": "Teppanyaki",
  "SecondCategory": "Izakaya (Tavern)",
  "DinnerPrice": "￥3000～￥3999",
  "LunchPrice": "NA",
  "TotalRating": 3.04,
  "DinnerRating": 3.04,
  "LunchRating": "NA",
  "ReviewNum": 1,
  "Lat": 35.0029211577045,
  "Long": 135.730812638868,
  "location": {
    "type": "Point",
    "coordinates": [
      null,
      null
    ]
  }
},
{
  "restaurantid": 77,
  "Name": "RIGOLETTO SMOKE GRILL & BAR  ",
  "JapaneseName": "RIGOLETTO SMOKE GRILL & BAR",
  "Station": "Gion Shijo",
  "FirstCategory": "Italian",
  "SecondCategory": "Spain",
  "DinnerPrice": "￥4000～￥4999",
  "LunchPrice": "￥1000～￥1999",
  "TotalRating": 3.52,
  "DinnerRating": 3.5,
  "LunchRating": 3.51,
  "ReviewNum": 113,
  "Lat": 35.0023853402133,
  "Long": 135.776146676328,
  "location": {
    "type": "Point",
    "coordinates": [
      null,
      null
    ]
  }
},
{
  "restaurantid": 78,
  "Name": "Kugurinaberoppakuya  ",
  "JapaneseName": "くぐり鍋 六白屋",
  "Station": "Karasuma",
  "FirstCategory": "Izakaya (Tavern)",
  "SecondCategory": "Japanese food (other)",
  "DinnerPrice": "￥4000～￥4999",
  "LunchPrice": "NA",
  "TotalRating": 3.08,
  "DinnerRating": 3.04,
  "LunchRating": 3.12,
  "ReviewNum": 19,
  "Lat": 35.0043845208436,
  "Long": 135.757382587083,
  "location": {
    "type": "Point",
    "coordinates": [
      null,
      null
    ]
  }
},
{
  "restaurantid": 79,
  "Name": "Kyouryouritategami  ",
  "JapaneseName": "京料理 立神",
  "Station": "Marutamachi",
  "FirstCategory": "Kyoto Cuisine",
  "SecondCategory": "Kaiseki (Traditional Japanese)",
  "DinnerPrice": "￥6000～￥7999",
  "LunchPrice": "￥2000～￥2999",
  "TotalRating": 3.51,
  "DinnerRating": 3.49,
  "LunchRating": 3.2,
  "ReviewNum": 11,
  "Lat": 35.0176544080438,
  "Long": 135.752669034239,
  "location": {
    "type": "Point",
    "coordinates": [
      null,
      null
    ]
  }
},
{
  "restaurantid": 80,
  "Name": "Pontochourobin  ",
  "JapaneseName": "先斗町 魯ビン",
  "Station": "Sanjo",
  "FirstCategory": "Kyoto Cuisine",
  "SecondCategory": "Kaiseki (Traditional Japanese)",
  "DinnerPrice": "￥6000～￥7999",
  "LunchPrice": "NA",
  "TotalRating": 3.48,
  "DinnerRating": 3.23,
  "LunchRating": 3.5,
  "ReviewNum": 66,
  "Lat": 35.007637467664,
  "Long": 135.771076855559,
  "location": {
    "type": "Point",
    "coordinates": [
      null,
      null
    ]
  }
},
{
  "restaurantid": 81,
  "Name": "BELLOTA concha  ",
  "JapaneseName": "ベジョータコンチャ 富小路店",
  "Station": "Kawaramachi",
  "FirstCategory": "Spain",
  "SecondCategory": "Italian",
  "DinnerPrice": "￥3000～￥3999",
  "LunchPrice": "￥1000～￥1999",
  "TotalRating": 3.16,
  "DinnerRating": 3.16,
  "LunchRating": 3.06,
  "ReviewNum": 23,
  "Lat": 35.0028287148498,
  "Long": 135.764830752759,
  "location": {
    "type": "Point",
    "coordinates": [
      null,
      null
    ]
  }
},
{
  "restaurantid": 82,
  "Name": "Bejitejiya  ",
  "JapaneseName": "ベジテジや 四条木屋町店",
  "Station": "Gion Shijo",
  "FirstCategory": "Yakiniku (BBQ Beef)",
  "SecondCategory": "Korean cuisine",
  "DinnerPrice": "￥3000～￥3999",
  "LunchPrice": "NA",
  "TotalRating": 3.11,
  "DinnerRating": 3.11,
  "LunchRating": "NA",
  "ReviewNum": 46,
  "Lat": 35.0035395378738,
  "Long": 135.77026258034,
  "location": {
    "type": "Point",
    "coordinates": [
      null,
      null
    ]
  }
},
{
  "restaurantid": 83,
  "Name": "Matsuzakagyuuwattsuzakicchin  ",
  "JapaneseName": "松阪牛 WHAT'S THE KITCHEN",
  "Station": "Gion Shijo",
  "FirstCategory": "Steak",
  "SecondCategory": "Sushi",
  "DinnerPrice": "￥10000～￥14999",
  "LunchPrice": "NA",
  "TotalRating": 3.06,
  "DinnerRating": 3.06,
  "LunchRating": "NA",
  "ReviewNum": 4,
  "Lat": 35.006283478163,
  "Long": 135.772928430793,
  "location": {
    "type": "Point",
    "coordinates": [
      null,
      null
    ]
  }
},
{
  "restaurantid": 84,
  "Name": "Sushidokoroima  ",
  "JapaneseName": "寿し処 今",
  "Station": "Katsura",
  "FirstCategory": "Sushi",
  "SecondCategory": "Seafood",
  "DinnerPrice": "￥6000～￥7999",
  "LunchPrice": "NA",
  "TotalRating": 3.53,
  "DinnerRating": 3.53,
  "LunchRating": "NA",
  "ReviewNum": 13,
  "Lat": 34.979850486332,
  "Long": 135.710131252004,
  "location": {
    "type": "Point",
    "coordinates": [
      null,
      null
    ]
  }
},
{
  "restaurantid": 85,
  "Name": "Maribuagaru  ",
  "JapaneseName": "まりぶあがる",
  "Station": "Karasuma",
  "FirstCategory": "Izakaya (Tavern)",
  "SecondCategory": "Japanese food (other)",
  "DinnerPrice": "￥3000～￥3999",
  "LunchPrice": "NA",
  "TotalRating": 3.1,
  "DinnerRating": 3.1,
  "LunchRating": "NA",
  "ReviewNum": 24,
  "Lat": 35.0026827391119,
  "Long": 135.761237630186,
  "location": {
    "type": "Point",
    "coordinates": [
      null,
      null
    ]
  }
},
{
  "restaurantid": 86,
  "Name": "Italian bar Lugol  ",
  "JapaneseName": "イタリアンバール ルゴール",
  "Station": "Karasuma Oike",
  "FirstCategory": "Italian",
  "SecondCategory": "Pasta",
  "DinnerPrice": "￥2000～￥2999",
  "LunchPrice": " ～￥999",
  "TotalRating": 3.03,
  "DinnerRating": 3.02,
  "LunchRating": 3.04,
  "ReviewNum": 28,
  "Lat": 35.0111876696183,
  "Long": 135.756670110802,
  "location": {
    "type": "Point",
    "coordinates": [
      null,
      null
    ]
  }
},
{
  "restaurantid": 87,
  "Name": "Takishokudou  ",
  "JapaneseName": "ターキー食堂",
  "Station": "Shijo",
  "FirstCategory": "Dining bar",
  "SecondCategory": "Izakaya (Tavern)",
  "DinnerPrice": "￥3000～￥3999",
  "LunchPrice": "NA",
  "TotalRating": 3.02,
  "DinnerRating": 3.02,
  "LunchRating": "NA",
  "ReviewNum": 3,
  "Lat": 35.0026330051004,
  "Long": 135.755297563109,
  "location": {
    "type": "Point",
    "coordinates": [
      null,
      null
    ]
  }
},
{
  "restaurantid": 88,
  "Name": "Bar Pleasure  ",
  "JapaneseName": "バー プレジャー",
  "Station": "Kawaramachi",
  "FirstCategory": "Bar",
  "SecondCategory": "Wine bar",
  "DinnerPrice": "￥2000～￥2999",
  "LunchPrice": "NA",
  "TotalRating": 3,
  "DinnerRating": 3,
  "LunchRating": "NA",
  "ReviewNum": 2,
  "Lat": 35.0061886218041,
  "Long": 135.764668287831,
  "location": {
    "type": "Point",
    "coordinates": [
      null,
      null
    ]
  }
},
{
  "restaurantid": 89,
  "Name": "Sou  ",
  "JapaneseName": "宗",
  "Station": "Shijo",
  "FirstCategory": "Izakaya (Tavern)",
  "SecondCategory": "Creative cuisine",
  "DinnerPrice": "￥4000～￥4999",
  "LunchPrice": "NA",
  "TotalRating": 3.55,
  "DinnerRating": 3.55,
  "LunchRating": "NA",
  "ReviewNum": 44,
  "Lat": 35.0048177708664,
  "Long": 135.755266076244,
  "location": {
    "type": "Point",
    "coordinates": [
      null,
      null
    ]
  }
},
{
  "restaurantid": 90,
  "Name": "Kaisenizakayamatsurishungyotokyouyasaitoosakenoomise  ",
  "JapaneseName": "海鮮居酒屋 祭ーMATSURIー 〜旬魚と京野菜とお酒のお店〜",
  "Station": "Kawaramachi",
  "FirstCategory": "Izakaya (Tavern)",
  "SecondCategory": "Seafood",
  "DinnerPrice": "￥3000～￥3999",
  "LunchPrice": "NA",
  "TotalRating": 3.03,
  "DinnerRating": 3.03,
  "LunchRating": "NA",
  "ReviewNum": 7,
  "Lat": 35.0040092787709,
  "Long": 135.770300805123,
  "location": {
    "type": "Point",
    "coordinates": [
      null,
      null
    ]
  }
},
{
  "restaurantid": 91,
  "Name": "Momojirou  ",
  "JapaneseName": "ももじろう 師団街道龍大前店",
  "Station": "Fukakusa",
  "FirstCategory": "Izakaya (Tavern)",
  "SecondCategory": "Chanko Nabe (Sumo Wrestlers Hot Pot)",
  "DinnerPrice": "￥3000～￥3999",
  "LunchPrice": "NA",
  "TotalRating": 3.04,
  "DinnerRating": 3.04,
  "LunchRating": "NA",
  "ReviewNum": 8,
  "Lat": 34.9628166529074,
  "Long": 135.768027505772,
  "location": {
    "type": "Point",
    "coordinates": [
      null,
      null
    ]
  }
},
{
  "restaurantid": 92,
  "Name": "Yakinikusakayaisshin  ",
  "JapaneseName": "焼肉酒屋いっ心",
  "Station": "Rokujizo",
  "FirstCategory": "Yakiniku (BBQ Beef)",
  "SecondCategory": "Izakaya (Tavern)",
  "DinnerPrice": "￥6000～￥7999",
  "LunchPrice": "NA",
  "TotalRating": 3.1,
  "DinnerRating": 3.1,
  "LunchRating": 3.05,
  "ReviewNum": 8,
  "Lat": 34.9322720261464,
  "Long": 135.793188766907,
  "location": {
    "type": "Point",
    "coordinates": [
      null,
      null
    ]
  }
},
{
  "restaurantid": 93,
  "Name": "Kyouhonoka  ",
  "JapaneseName": "京ほのか 三条木屋町店",
  "Station": "Sanjo",
  "FirstCategory": "Izakaya (Tavern)",
  "SecondCategory": "Creative cuisine",
  "DinnerPrice": "￥3000～￥3999",
  "LunchPrice": "NA",
  "TotalRating": 3.01,
  "DinnerRating": 3.02,
  "LunchRating": "NA",
  "ReviewNum": 12,
  "Lat": 35.0090850753986,
  "Long": 135.770206305652,
  "location": {
    "type": "Point",
    "coordinates": [
      null,
      null
    ]
  }
},
{
  "restaurantid": 94,
  "Name": "Ampan  ",
  "JapaneseName": "内房",
  "Station": "Karasuma Oike",
  "FirstCategory": "Korean cuisine",
  "SecondCategory": "Yakiniku (BBQ Beef)",
  "DinnerPrice": "￥3000～￥3999",
  "LunchPrice": "￥1000～￥1999",
  "TotalRating": 3.08,
  "DinnerRating": 3.09,
  "LunchRating": 3,
  "ReviewNum": 20,
  "Lat": 35.0085107284906,
  "Long": 135.756370536711,
  "location": {
    "type": "Point",
    "coordinates": [
      null,
      null
    ]
  }
},
{
  "restaurantid": 95,
  "Name": "rino  ",
  "JapaneseName": "Lino",
  "Station": "Karasuma Oike",
  "FirstCategory": "Italian",
  "SecondCategory": "Pasta",
  "DinnerPrice": "￥6000～￥7999",
  "LunchPrice": "￥1000～￥1999",
  "TotalRating": 3.2,
  "DinnerRating": 3.05,
  "LunchRating": 3.2,
  "ReviewNum": 10,
  "Lat": 35.0131424729159,
  "Long": 135.757379128582,
  "location": {
    "type": "Point",
    "coordinates": [
      null,
      null
    ]
  }
},
{
  "restaurantid": 96,
  "Name": "REAL NETA DINING ICHIZ  ",
  "JapaneseName": "イチズ",
  "Station": "Tambaguchi",
  "FirstCategory": "Italian",
  "SecondCategory": "Izakaya (Tavern)",
  "DinnerPrice": "￥4000～￥4999",
  "LunchPrice": " ～￥999",
  "TotalRating": 3.05,
  "DinnerRating": 3.05,
  "LunchRating": 3,
  "ReviewNum": 14,
  "Lat": 34.9929450895897,
  "Long": 135.735796850912,
  "location": {
    "type": "Point",
    "coordinates": [
      null,
      null
    ]
  }
},
{
  "restaurantid": 97,
  "Name": "nikubaruginjirou  ",
  "JapaneseName": "肉バル銀次郎 先斗町店",
  "Station": "Gion Shijo",
  "FirstCategory": "Bar",
  "SecondCategory": "Steak",
  "DinnerPrice": "￥3000～￥3999",
  "LunchPrice": "NA",
  "TotalRating": 3.06,
  "DinnerRating": 3.07,
  "LunchRating": "NA",
  "ReviewNum": 7,
  "Lat": 35.0042653266744,
  "Long": 135.770980907676,
  "location": {
    "type": "Point",
    "coordinates": [
      null,
      null
    ]
  }
},
{
  "restaurantid": 98,
  "Name": "Kushikatsutanaka  ",
  "JapaneseName": "串カツ田中 西院店",
  "Station": "Saiin",
  "FirstCategory": "Kushi-age (Fried Skewer)",
  "SecondCategory": "Izakaya (Tavern)",
  "DinnerPrice": "￥2000～￥2999",
  "LunchPrice": "NA",
  "TotalRating": 3.02,
  "DinnerRating": 3.02,
  "LunchRating": "NA",
  "ReviewNum": 3,
  "Lat": 35.0037849596386,
  "Long": 135.73112396213,
  "location": {
    "type": "Point",
    "coordinates": [
      null,
      null
    ]
  }
},
{
  "restaurantid": 99,
  "Name": "nihonshusumiyakiyaiki  ",
  "JapaneseName": "日本酒 炭焼き家 粋",
  "Station": "Fushimi Momoyama",
  "FirstCategory": "Izakaya (Tavern)",
  "SecondCategory": "Kappo (Traditional Japanese)",
  "DinnerPrice": "￥3000～￥3999",
  "LunchPrice": "NA",
  "TotalRating": 3.04,
  "DinnerRating": 3.05,
  "LunchRating": 3,
  "ReviewNum": 9,
  "Lat": 34.9319940369551,
  "Long": 135.763480413649,
  "location": {
    "type": "Point",
    "coordinates": [
      null,
      null
    ]
  }
},
{
  "restaurantid": 100,
  "Name": "Taketori  ",
  "JapaneseName": "竹とり",
  "Station": "Hanazono",
  "FirstCategory": "Fowl",
  "SecondCategory": "Yakitori (Grilled chicken)",
  "DinnerPrice": "￥4000～￥4999",
  "LunchPrice": "NA",
  "TotalRating": 3.06,
  "DinnerRating": 3.06,
  "LunchRating": "NA",
  "ReviewNum": 11,
  "Lat": 35.0200080927924,
  "Long": 135.71865044509,
  "location": {
    "type": "Point",
    "coordinates": [
      null,
      null
    ]
  }
},
{
  "restaurantid": 101,
  "Name": "Pierupureshiuzu  ",
  "JapaneseName": "ピエール プレシウーズ",
  "Station": "Karasuma Oike",
  "FirstCategory": "French",
  "SecondCategory": "Western Cuisine",
  "DinnerPrice": "￥5000～￥5999",
  "LunchPrice": "￥1000～￥1999",
  "TotalRating": 3.06,
  "DinnerRating": 3.04,
  "LunchRating": 3.06,
  "ReviewNum": 14,
  "Lat": 35.0072606963549,
  "Long": 135.762778950935,
  "location": {
    "type": "Point",
    "coordinates": [
      null,
      null
    ]
  }
},
{
  "restaurantid": 102,
  "Name": "Yamadaruma  ",
  "JapaneseName": "やまだるま",
  "Station": "Karasuma Oike",
  "FirstCategory": "Izakaya (Tavern)",
  "SecondCategory": "Seafood",
  "DinnerPrice": "￥3000～￥3999",
  "LunchPrice": " ～￥999",
  "TotalRating": 3.03,
  "DinnerRating": 3.03,
  "LunchRating": 3.03,
  "ReviewNum": 10,
  "Lat": 35.0073406469914,
  "Long": 135.760442474632,
  "location": {
    "type": "Point",
    "coordinates": [
      null,
      null
    ]
  }
},
{
  "restaurantid": 103,
  "Name": "unagihitsumabushisumiyagura  ",
  "JapaneseName": "うなぎ･ひつまぶし炭櫓 京都四条河原町店",
  "Station": "Kawaramachi",
  "FirstCategory": "Unagi (Freshwater eel)",
  "SecondCategory": "Kyoto Cuisine",
  "DinnerPrice": "￥2000～￥2999",
  "LunchPrice": "￥1000～￥1999",
  "TotalRating": 3.21,
  "DinnerRating": 3.03,
  "LunchRating": 3.21,
  "ReviewNum": 7,
  "Lat": 35.0035820463351,
  "Long": 135.769830756877,
  "location": {
    "type": "Point",
    "coordinates": [
      null,
      null
    ]
  }
},
{
  "restaurantid": 104,
  "Name": "pittsuxeriaba-rurenapori  ",
  "JapaneseName": "ピッツェリア・バール・レ・ナポリ 京都錦",
  "Station": "Karasuma",
  "FirstCategory": "Italian",
  "SecondCategory": "Pizza",
  "DinnerPrice": "￥2000～￥2999",
  "LunchPrice": " ～￥999",
  "TotalRating": 3.37,
  "DinnerRating": 3.07,
  "LunchRating": 3.52,
  "ReviewNum": 37,
  "Lat": 35.0050542545871,
  "Long": 135.762143271984,
  "location": {
    "type": "Point",
    "coordinates": [
      null,
      null
    ]
  }
},
{
  "restaurantid": 105,
  "Name": "kyoutoufusousakuhirarinteikakurean  ",
  "JapaneseName": "京豆腐創作 平林亭 隠れ庵",
  "Station": "Kyoto",
  "FirstCategory": "Izakaya (Tavern)",
  "SecondCategory": "Tofu",
  "DinnerPrice": "￥3000～￥3999",
  "LunchPrice": "￥1000～￥1999",
  "TotalRating": 3,
  "DinnerRating": 3,
  "LunchRating": "NA",
  "ReviewNum": 10,
  "Lat": 34.9894058915637,
  "Long": 135.76003750068,
  "location": {
    "type": "Point",
    "coordinates": [
      null,
      null
    ]
  }
},
{
  "restaurantid": 106,
  "Name": "Yakinikusebun  ",
  "JapaneseName": "焼肉 SEVEN",
  "Station": "Tambaguchi",
  "FirstCategory": "Yakiniku (BBQ Beef)",
  "SecondCategory": "Horumon (BBQ Offel)",
  "DinnerPrice": "￥3000～￥3999",
  "LunchPrice": "NA",
  "TotalRating": 3.3,
  "DinnerRating": 3.3,
  "LunchRating": "NA",
  "ReviewNum": 11,
  "Lat": 34.9893643762064,
  "Long": 135.736640279062,
  "location": {
    "type": "Point",
    "coordinates": [
      null,
      null
    ]
  }
},
{
  "restaurantid": 107,
  "Name": "Kushiyakimanten  ",
  "JapaneseName": "串焼き満天 四条烏丸店",
  "Station": "Karasuma",
  "FirstCategory": "Yakitori (Grilled chicken)",
  "SecondCategory": "Izakaya (Tavern)",
  "DinnerPrice": "￥3000～￥3999",
  "LunchPrice": "NA",
  "TotalRating": 3.07,
  "DinnerRating": 3.08,
  "LunchRating": "NA",
  "ReviewNum": 17,
  "Lat": 35.0043123705694,
  "Long": 135.761059785014,
  "location": {
    "type": "Point",
    "coordinates": [
      null,
      null
    ]
  }
},
{
  "restaurantid": 108,
  "Name": "Yakinikuichiba  ",
  "JapaneseName": "焼肉市場 高野店",
  "Station": "Chayama",
  "FirstCategory": "Yakiniku (BBQ Beef)",
  "SecondCategory": "Horumon (BBQ Offel)",
  "DinnerPrice": "￥3000～￥3999",
  "LunchPrice": "NA",
  "TotalRating": 3.04,
  "DinnerRating": 3.04,
  "LunchRating": "NA",
  "ReviewNum": 3,
  "Lat": 35.0405925559109,
  "Long": 135.787095952307,
  "location": {
    "type": "Point",
    "coordinates": [
      null,
      null
    ]
  }
},
{
  "restaurantid": 109,
  "Name": "Pizzeria e Bar La Voce  ",
  "JapaneseName": "Pizzeria e Bar La Voce",
  "Station": "Kawaramachi",
  "FirstCategory": "Italian",
  "SecondCategory": "Pizza",
  "DinnerPrice": "￥3000～￥3999",
  "LunchPrice": "￥1000～￥1999",
  "TotalRating": 3.18,
  "DinnerRating": 3.18,
  "LunchRating": 3.05,
  "ReviewNum": 14,
  "Lat": 35.0024457106357,
  "Long": 135.765917523079,
  "location": {
    "type": "Point",
    "coordinates": [
      null,
      null
    ]
  }
},
{
  "restaurantid": 110,
  "Name": "Nyavetonamu  ",
  "JapaneseName": "ニャーヴェトナム 京都店",
  "Station": "Kyoto",
  "FirstCategory": "Viet Nam cuisine",
  "SecondCategory": "Cafe",
  "DinnerPrice": "￥3000～￥3999",
  "LunchPrice": "￥1000～￥1999",
  "TotalRating": 3.04,
  "DinnerRating": 3.04,
  "LunchRating": 3.02,
  "ReviewNum": 18,
  "Lat": 34.9887087338191,
  "Long": 135.759459802978,
  "location": {
    "type": "Point",
    "coordinates": [
      null,
      null
    ]
  }
},
{
  "restaurantid": 111,
  "Name": "Taishuusakabatenuzumasatenjingawaten  ",
  "JapaneseName": "大衆酒場 天 太秦天神川店",
  "Station": "Uzumasa Tenjingawa",
  "FirstCategory": "Izakaya (Tavern)",
  "SecondCategory": "Yakitori (Grilled chicken)",
  "DinnerPrice": "￥3000～￥3999",
  "LunchPrice": "￥3000～￥3999",
  "TotalRating": 3.02,
  "DinnerRating": 3.02,
  "LunchRating": "NA",
  "ReviewNum": 1,
  "Lat": 35.0113916436711,
  "Long": 135.715086610472,
  "location": {
    "type": "Point",
    "coordinates": [
      null,
      null
    ]
  }
},
{
  "restaurantid": 112,
  "Name": "hoterukeihankyoutogurandeokujoubiaga-den  ",
  "JapaneseName": "ホテル京阪京都 グランデ 屋上ビアガーデン",
  "Station": "Kyoto",
  "FirstCategory": "Beer garden",
  "SecondCategory": "Beer",
  "DinnerPrice": "￥3000～￥3999",
  "LunchPrice": "NA",
  "TotalRating": 3.05,
  "DinnerRating": 3.05,
  "LunchRating": "NA",
  "ReviewNum": 3,
  "Lat": 34.9835995832687,
  "Long": 135.760902140649,
  "location": {
    "type": "Point",
    "coordinates": [
      null,
      null
    ]
  }
},
{
  "restaurantid": 113,
  "Name": "Gionramburu  ",
  "JapaneseName": "祇園らんぶる",
  "Station": "Gion Shijo",
  "FirstCategory": "Kyoto Cuisine",
  "SecondCategory": "Creative cuisine",
  "DinnerPrice": "￥5000～￥5999",
  "LunchPrice": "￥3000～￥3999",
  "TotalRating": 3.56,
  "DinnerRating": 3.56,
  "LunchRating": 3.06,
  "ReviewNum": 24,
  "Lat": 35.0031163586616,
  "Long": 135.775318100373,
  "location": {
    "type": "Point",
    "coordinates": [
      null,
      null
    ]
  }
},
{
  "restaurantid": 114,
  "Name": "Shisui  ",
  "JapaneseName": "紫水",
  "Station": "Sanjo",
  "FirstCategory": "Izakaya (Tavern)",
  "SecondCategory": "Kyoto Cuisine",
  "DinnerPrice": "￥3000～￥3999",
  "LunchPrice": "NA",
  "TotalRating": 3,
  "DinnerRating": 3,
  "LunchRating": "NA",
  "ReviewNum": 8,
  "Lat": 35.009195902394,
  "Long": 135.770522107655,
  "location": {
    "type": "Point",
    "coordinates": [
      null,
      null
    ]
  }
},
{
  "restaurantid": 115,
  "Name": "gyouzaba-anzukko  ",
  "JapaneseName": "GYOZA BAR 杏っ子",
  "Station": "Kyoto Shiyakusho Mae",
  "FirstCategory": "Dumplings",
  "SecondCategory": "Chinese",
  "DinnerPrice": "￥2000～￥2999",
  "LunchPrice": "NA",
  "TotalRating": 3.08,
  "DinnerRating": 3.09,
  "LunchRating": "NA",
  "ReviewNum": 25,
  "Lat": 35.0092211611541,
  "Long": 135.769588017402,
  "location": {
    "type": "Point",
    "coordinates": [
      null,
      null
    ]
  }
},
{
  "restaurantid": 116,
  "Name": "jukuseiyakinikupondo  ",
  "JapaneseName": "熟成焼肉 听 四条大宮店",
  "Station": "Shijo Omiya",
  "FirstCategory": "Yakiniku (BBQ Beef)",
  "SecondCategory": "Horumon (BBQ Offel)",
  "DinnerPrice": "￥5000～￥5999",
  "LunchPrice": "￥1000～￥1999",
  "TotalRating": 3.28,
  "DinnerRating": 3.25,
  "LunchRating": 3.09,
  "ReviewNum": 26,
  "Lat": 35.0045498978592,
  "Long": 135.748173899804,
  "location": {
    "type": "Point",
    "coordinates": [
      null,
      null
    ]
  }
},
{
  "restaurantid": 117,
  "Name": "KORAN  ",
  "JapaneseName": "香蘭",
  "Station": "Sai",
  "FirstCategory": "Korean cuisine",
  "SecondCategory": "Yakiniku (BBQ Beef)",
  "DinnerPrice": "￥4000～￥4999",
  "LunchPrice": "NA",
  "TotalRating": 3.12,
  "DinnerRating": 3.12,
  "LunchRating": "NA",
  "ReviewNum": 10,
  "Lat": 35.003480331926,
  "Long": 135.734669237277,
  "location": {
    "type": "Point",
    "coordinates": [
      null,
      null
    ]
  }
},
{
  "restaurantid": 118,
  "Name": "Kyoutonijoutosaka  ",
  "JapaneseName": "京都二条とさか",
  "Station": "Marutamachi",
  "FirstCategory": "Kappo (Traditional Japanese)",
  "SecondCategory": "Japanese food (other)",
  "DinnerPrice": "￥8000～￥9999",
  "LunchPrice": "￥2000～￥2999",
  "TotalRating": 3.53,
  "DinnerRating": 3.36,
  "LunchRating": 3.57,
  "ReviewNum": 13,
  "Lat": 35.0135900066418,
  "Long": 135.762050386696,
  "location": {
    "type": "Point",
    "coordinates": [
      null,
      null
    ]
  }
},
{
  "restaurantid": 119,
  "Name": "YAMAMURA GYUUBEI  ",
  "JapaneseName": "近江牛Steak&Wine 山村牛兵衛 四条大宮店",
  "Station": "Omiya",
  "FirstCategory": "Izakaya (Tavern)",
  "SecondCategory": "Italian",
  "DinnerPrice": "￥3000～￥3999",
  "LunchPrice": "￥1000～￥1999",
  "TotalRating": 3.06,
  "DinnerRating": 3.04,
  "LunchRating": 3.06,
  "ReviewNum": 17,
  "Lat": 35.0050615247931,
  "Long": 135.749032138305,
  "location": {
    "type": "Point",
    "coordinates": [
      null,
      null
    ]
  }
},
{
  "restaurantid": 120,
  "Name": "Poquito  ",
  "JapaneseName": "ポキート",
  "Station": "Kyoto Shiyakusho Mae",
  "FirstCategory": "Spain",
  "SecondCategory": "Dining bar",
  "DinnerPrice": "￥5000～￥5999",
  "LunchPrice": "NA",
  "TotalRating": 3.51,
  "DinnerRating": 3.51,
  "LunchRating": "NA",
  "ReviewNum": 83,
  "Lat": 35.0103402053316,
  "Long": 135.76942797917,
  "location": {
    "type": "Point",
    "coordinates": [
      null,
      null
    ]
  }
},
{
  "restaurantid": 121,
  "Name": "Machiyashisenhoshitsukiyo  ",
  "JapaneseName": "町家四川 星月夜",
  "Station": "Omiya",
  "FirstCategory": "Sichuan Cuisine",
  "SecondCategory": "Shanghai Cuisine",
  "DinnerPrice": "￥8000～￥9999",
  "LunchPrice": "￥3000～￥3999",
  "TotalRating": 3.53,
  "DinnerRating": 3.27,
  "LunchRating": 3.56,
  "ReviewNum": 14,
  "Lat": 35.0014650442168,
  "Long": 135.753565538506,
  "location": {
    "type": "Point",
    "coordinates": [
      null,
      null
    ]
  }
},
{
  "restaurantid": 122,
  "Name": "Ameirobisutoroaruru  ",
  "JapaneseName": "アメイロビストロアルル",
  "Station": "Nishi Maizuru",
  "FirstCategory": "Italian",
  "SecondCategory": "Cafe",
  "DinnerPrice": "￥3000～￥3999",
  "LunchPrice": "￥1000～￥1999",
  "TotalRating": 3.05,
  "DinnerRating": 3.04,
  "LunchRating": 3.06,
  "ReviewNum": 8,
  "Lat": 35.4531345954263,
  "Long": 135.329018056996,
  "location": {
    "type": "Point",
    "coordinates": [
      null,
      null
    ]
  }
},
{
  "restaurantid": 123,
  "Name": "LODGE  ",
  "JapaneseName": "北海道ステーキハウス LODGE",
  "Station": "Kyoto Shiyakusho Mae",
  "FirstCategory": "Steak",
  "SecondCategory": "Izakaya (Tavern)",
  "DinnerPrice": "￥4000～￥4999",
  "LunchPrice": "￥1000～￥1999",
  "TotalRating": 3.06,
  "DinnerRating": 3.06,
  "LunchRating": 3,
  "ReviewNum": 4,
  "Lat": 35.0097955295841,
  "Long": 135.768753338055,
  "location": {
    "type": "Point",
    "coordinates": [
      null,
      null
    ]
  }
},
{
  "restaurantid": 124,
  "Name": "Yosuke YAMAJI  ",
  "JapaneseName": "山地陽介",
  "Station": "Gion Shijo",
  "FirstCategory": "French",
  "SecondCategory": "Modern French",
  "DinnerPrice": "￥20000～￥29999",
  "LunchPrice": "￥8000～￥9999",
  "TotalRating": 4.02,
  "DinnerRating": 3.68,
  "LunchRating": 3.75,
  "ReviewNum": 44,
  "Lat": 35.0027080751407,
  "Long": 135.775669756633,
  "location": {
    "type": "Point",
    "coordinates": [
      null,
      null
    ]
  }
},
{
  "restaurantid": 125,
  "Name": "Feliz-Lana  ",
  "JapaneseName": "フェリスラナ",
  "Station": "Karasuma",
  "FirstCategory": "Italian",
  "SecondCategory": "Bar",
  "DinnerPrice": "￥3000～￥3999",
  "LunchPrice": "￥1000～￥1999",
  "TotalRating": 3.2,
  "DinnerRating": 3.2,
  "LunchRating": 3.06,
  "ReviewNum": 23,
  "Lat": 35.0023384434237,
  "Long": 135.762685018699,
  "location": {
    "type": "Point",
    "coordinates": [
      null,
      null
    ]
  }
},
{
  "restaurantid": 126,
  "Name": "Wakanoshizuku  ",
  "JapaneseName": "和花のしずく 三条木屋町店",
  "Station": "Sanjo",
  "FirstCategory": "Izakaya (Tavern)",
  "SecondCategory": "Chanko Nabe (Sumo Wrestlers Hot Pot)",
  "DinnerPrice": "￥3000～￥3999",
  "LunchPrice": "NA",
  "TotalRating": 3.02,
  "DinnerRating": 3.02,
  "LunchRating": "NA",
  "ReviewNum": 4,
  "Lat": 35.0090970189682,
  "Long": 135.770229358743,
  "location": {
    "type": "Point",
    "coordinates": [
      null,
      null
    ]
  }
},
{
  "restaurantid": 127,
  "Name": "fujiyakyoushoku  ",
  "JapaneseName": "Fuji屋 京色",
  "Station": "Kyoto Shiyakusho Mae",
  "FirstCategory": "Izakaya (Tavern)",
  "SecondCategory": "Japanese food (other)",
  "DinnerPrice": "￥5000～￥5999",
  "LunchPrice": "￥4000～￥4999",
  "TotalRating": 3.04,
  "DinnerRating": 3.04,
  "LunchRating": "NA",
  "ReviewNum": 8,
  "Lat": 35.0135175544319,
  "Long": 135.764342699656,
  "location": {
    "type": "Point",
    "coordinates": [
      null,
      null
    ]
  }
},
{
  "restaurantid": 128,
  "Name": "Teramachiyoshikura  ",
  "JapaneseName": "寺町よしくら",
  "Station": "Demachiyanagi",
  "FirstCategory": "Kaiseki (Traditional Japanese)",
  "SecondCategory": "Kyoto Cuisine",
  "DinnerPrice": "￥5000～￥5999",
  "LunchPrice": "￥1000～￥1999",
  "TotalRating": 3.16,
  "DinnerRating": 3.13,
  "LunchRating": 3.09,
  "ReviewNum": 33,
  "Lat": 35.0287626378569,
  "Long": 135.767667880596,
  "location": {
    "type": "Point",
    "coordinates": [
      null,
      null
    ]
  }
},
{
  "restaurantid": 129,
  "Name": "sakanaryouritosakeshinsengumi  ",
  "JapaneseName": "魚料理と酒 新鮮具味",
  "Station": "Fushimi",
  "FirstCategory": "Izakaya (Tavern)",
  "SecondCategory": "Seafood",
  "DinnerPrice": "￥6000～￥7999",
  "LunchPrice": "￥2000～￥2999",
  "TotalRating": 3.28,
  "DinnerRating": 3.28,
  "LunchRating": "NA",
  "ReviewNum": 38,
  "Lat": 34.9402814766159,
  "Long": 135.747163053901,
  "location": {
    "type": "Point",
    "coordinates": [
      null,
      null
    ]
  }
},
{
  "restaurantid": 130,
  "Name": "bisutorowaraku  ",
  "JapaneseName": "Bistro WARAKU 四条柳馬場店",
  "Station": "Karasuma",
  "FirstCategory": "Bistro",
  "SecondCategory": "Bar",
  "DinnerPrice": "￥4000～￥4999",
  "LunchPrice": "￥1000～￥1999",
  "TotalRating": 3.2,
  "DinnerRating": 3.14,
  "LunchRating": 3.15,
  "ReviewNum": 37,
  "Lat": 35.0044229668434,
  "Long": 135.764068141189,
  "location": {
    "type": "Point",
    "coordinates": [
      null,
      null
    ]
  }
},
{
  "restaurantid": 131,
  "Name": "Uroko  ",
  "JapaneseName": "鱗",
  "Station": "Kawaramachi",
  "FirstCategory": "Izakaya (Tavern)",
  "SecondCategory": "Japanese food (other)",
  "DinnerPrice": "￥3000～￥3999",
  "LunchPrice": "NA",
  "TotalRating": 3.07,
  "DinnerRating": 3.07,
  "LunchRating": "NA",
  "ReviewNum": 18,
  "Lat": 35.0044541828409,
  "Long": 135.770264014074,
  "location": {
    "type": "Point",
    "coordinates": [
      null,
      null
    ]
  }
},
{
  "restaurantid": 132,
  "Name": "Ipponyari  ",
  "JapaneseName": "一本槍",
  "Station": "Fujinomori",
  "FirstCategory": "Fugu (Blowfish)",
  "SecondCategory": "Kappo (Traditional Japanese)",
  "DinnerPrice": "￥8000～￥9999",
  "LunchPrice": "NA",
  "TotalRating": 3.08,
  "DinnerRating": 3.09,
  "LunchRating": "NA",
  "ReviewNum": 5,
  "Lat": 34.9574921438766,
  "Long": 135.763530902143,
  "location": {
    "type": "Point",
    "coordinates": [
      null,
      null
    ]
  }
},
{
  "restaurantid": 133,
  "Name": "Higashinotouinsou  ",
  "JapaneseName": "東洞院SOU",
  "Station": "Karasuma Oike",
  "FirstCategory": "Kappo (Traditional Japanese)",
  "SecondCategory": "Japanese food (other)",
  "DinnerPrice": "￥4000～￥4999",
  "LunchPrice": "￥1000～￥1999",
  "TotalRating": 3.15,
  "DinnerRating": 3.15,
  "LunchRating": 3.06,
  "ReviewNum": 6,
  "Lat": 35.0074942517641,
  "Long": 135.761020197357,
  "location": {
    "type": "Point",
    "coordinates": [
      null,
      null
    ]
  }
},
{
  "restaurantid": 134,
  "Name": "hokkorisakabanagomiya  ",
  "JapaneseName": "ほっこり酒場なごみ家",
  "Station": "Shijo Omiya",
  "FirstCategory": "Izakaya (Tavern)",
  "SecondCategory": "Yakitori (Grilled chicken)",
  "DinnerPrice": "￥3000～￥3999",
  "LunchPrice": "NA",
  "TotalRating": 3.06,
  "DinnerRating": 3.06,
  "LunchRating": "NA",
  "ReviewNum": 6,
  "Lat": 35.0061571694362,
  "Long": 135.744938816698,
  "location": {
    "type": "Point",
    "coordinates": [
      null,
      null
    ]
  }
},
{
  "restaurantid": 135,
  "Name": "teppandainingugionshou  ",
  "JapaneseName": "鉄板Dining祇園 翔 縄手店",
  "Station": "Gion Shijo",
  "FirstCategory": "Izakaya (Tavern)",
  "SecondCategory": "Teppanyaki",
  "DinnerPrice": "￥2000～￥2999",
  "LunchPrice": "NA",
  "TotalRating": 3.02,
  "DinnerRating": 3.02,
  "LunchRating": "NA",
  "ReviewNum": 1,
  "Lat": 35.0040289967583,
  "Long": 135.772909925019,
  "location": {
    "type": "Point",
    "coordinates": [
      null,
      null
    ]
  }
},
{
  "restaurantid": 136,
  "Name": "Charcoal  ",
  "JapaneseName": "チャコール",
  "Station": "Shijo",
  "FirstCategory": "Italian",
  "SecondCategory": "Bar",
  "DinnerPrice": "￥3000～￥3999",
  "LunchPrice": "NA",
  "TotalRating": 3.53,
  "DinnerRating": 3.53,
  "LunchRating": "NA",
  "ReviewNum": 19,
  "Lat": 35.0040659194942,
  "Long": 135.755990495142,
  "location": {
    "type": "Point",
    "coordinates": [
      null,
      null
    ]
  }
},
{
  "restaurantid": 137,
  "Name": "rakuenzakayaannachuraru  ",
  "JapaneseName": "楽園酒屋 アンナチュラル",
  "Station": "Demachiyanagi",
  "FirstCategory": "Izakaya (Tavern)",
  "SecondCategory": "Dining bar",
  "DinnerPrice": "￥2000～￥2999",
  "LunchPrice": "NA",
  "TotalRating": 3,
  "DinnerRating": 3,
  "LunchRating": "NA",
  "ReviewNum": 2,
  "Lat": 35.029520546032,
  "Long": 135.779161565477,
  "location": {
    "type": "Point",
    "coordinates": [
      null,
      null
    ]
  }
},
{
  "restaurantid": 138,
  "Name": "Gionemon  ",
  "JapaneseName": "祇園えもん",
  "Station": "Higashiyama",
  "FirstCategory": "Sushi",
  "SecondCategory": "Kappo (Traditional Japanese)",
  "DinnerPrice": "￥6000～￥7999",
  "LunchPrice": "￥1000～￥1999",
  "TotalRating": 3.48,
  "DinnerRating": 3.39,
  "LunchRating": 3.23,
  "ReviewNum": 17,
  "Lat": 35.0070682048416,
  "Long": 135.777988807732,
  "location": {
    "type": "Point",
    "coordinates": [
      null,
      null
    ]
  }
},
{
  "restaurantid": 139,
  "Name": "Momojirou  ",
  "JapaneseName": "ももじろう JR山科駅前店",
  "Station": "Keihan Yamashina",
  "FirstCategory": "Izakaya (Tavern)",
  "SecondCategory": "Seafood",
  "DinnerPrice": "￥3000～￥3999",
  "LunchPrice": "NA",
  "TotalRating": 3.08,
  "DinnerRating": 3.08,
  "LunchRating": "NA",
  "ReviewNum": 14,
  "Lat": 34.9918852426794,
  "Long": 135.817584829449,
  "location": {
    "type": "Point",
    "coordinates": [
      null,
      null
    ]
  }
},
{
  "restaurantid": 140,
  "Name": "Kizakurajirokutei  ",
  "JapaneseName": "黄桜 治六亭",
  "Station": "Sanjo",
  "FirstCategory": "Izakaya (Tavern)",
  "SecondCategory": "Kyoto Cuisine",
  "DinnerPrice": "￥3000～￥3999",
  "LunchPrice": "NA",
  "TotalRating": 3.2,
  "DinnerRating": 3.2,
  "LunchRating": "NA",
  "ReviewNum": 15,
  "Lat": 35.0083040555842,
  "Long": 135.770650471388,
  "location": {
    "type": "Point",
    "coordinates": [
      null,
      null
    ]
  }
},
{
  "restaurantid": 141,
  "Name": "torisemmontenyamadori  ",
  "JapaneseName": "鶏専門店山鶏",
  "Station": "Kyoto",
  "FirstCategory": "Yakitori (Grilled chicken)",
  "SecondCategory": "Sukiyaki",
  "DinnerPrice": "￥3000～￥3999",
  "LunchPrice": "NA",
  "TotalRating": 3.38,
  "DinnerRating": 3.38,
  "LunchRating": "NA",
  "ReviewNum": 14,
  "Lat": 34.9893744850266,
  "Long": 135.758834824231,
  "location": {
    "type": "Point",
    "coordinates": [
      null,
      null
    ]
  }
},
{
  "restaurantid": 142,
  "Name": "satsumachirandorikuroyakibeppinya  ",
  "JapaneseName": "さつま知覧どり 黒焼き べっぴんや",
  "Station": "Karasuma",
  "FirstCategory": "Izakaya (Tavern)",
  "SecondCategory": "Fowl",
  "DinnerPrice": "￥3000～￥3999",
  "LunchPrice": "NA",
  "TotalRating": 3.48,
  "DinnerRating": 3.46,
  "LunchRating": 3.08,
  "ReviewNum": 39,
  "Lat": 35.0024498377811,
  "Long": 135.763680208698,
  "location": {
    "type": "Point",
    "coordinates": [
      null,
      null
    ]
  }
},
{
  "restaurantid": 143,
  "Name": "zensekikoshitsuizakayasakurazaka  ",
  "JapaneseName": "全席個室居酒屋 桜坂 河原町店",
  "Station": "Sanjo",
  "FirstCategory": "Izakaya (Tavern)",
  "SecondCategory": "Seafood",
  "DinnerPrice": "￥2000～￥2999",
  "LunchPrice": "NA",
  "TotalRating": 3,
  "DinnerRating": 3,
  "LunchRating": "NA",
  "ReviewNum": 4,
  "Lat": 35.0076434580508,
  "Long": 135.770025878736,
  "location": {
    "type": "Point",
    "coordinates": [
      null,
      null
    ]
  }
},
{
  "restaurantid": 144,
  "Name": "Chiritorinabeiyama  ",
  "JapaneseName": "ちりとり鍋 伊山",
  "Station": "Kitano Hakubaicho",
  "FirstCategory": "Chiritori nabe (tripe)",
  "SecondCategory": "Korean cuisine",
  "DinnerPrice": "￥4000～￥4999",
  "LunchPrice": "NA",
  "TotalRating": 3.52,
  "DinnerRating": 3.52,
  "LunchRating": "NA",
  "ReviewNum": 24,
  "Lat": 35.0266908875947,
  "Long": 135.733680472959,
  "location": {
    "type": "Point",
    "coordinates": [
      null,
      null
    ]
  }
},
{
  "restaurantid": 145,
  "Name": "Mayonakashokudouchoujuugigarokkaku  ",
  "JapaneseName": "真夜中食堂 鳥獣戯画 六角",
  "Station": "Karasuma Oike",
  "FirstCategory": "Izakaya (Tavern)",
  "SecondCategory": "Fowl",
  "DinnerPrice": "￥2000～￥2999",
  "LunchPrice": "NA",
  "TotalRating": 3.06,
  "DinnerRating": 3.06,
  "LunchRating": "NA",
  "ReviewNum": 3,
  "Lat": 35.0077163534109,
  "Long": 135.755477314134,
  "location": {
    "type": "Point",
    "coordinates": [
      null,
      null
    ]
  }
},
{
  "restaurantid": 146,
  "Name": "Bankettonishiki  ",
  "JapaneseName": "ばんけっと Nishiki.",
  "Station": "Karasuma",
  "FirstCategory": "Japanese food (other)",
  "SecondCategory": "Izakaya (Tavern)",
  "DinnerPrice": "￥4000～￥4999",
  "LunchPrice": "NA",
  "TotalRating": 3.15,
  "DinnerRating": 3.15,
  "LunchRating": "NA",
  "ReviewNum": 7,
  "Lat": 35.0051393378696,
  "Long": 135.760538380364,
  "location": {
    "type": "Point",
    "coordinates": [
      null,
      null
    ]
  }
},
{
  "restaurantid": 147,
  "Name": "Roppakuyakado  ",
  "JapaneseName": "Roppakuya KADO",
  "Station": "Karasuma",
  "FirstCategory": "Izakaya (Tavern)",
  "SecondCategory": "Wine bar",
  "DinnerPrice": "￥3000～￥3999",
  "LunchPrice": "NA",
  "TotalRating": 3.06,
  "DinnerRating": 3.06,
  "LunchRating": "NA",
  "ReviewNum": 7,
  "Lat": 35.0044689590267,
  "Long": 135.757541181135,
  "location": {
    "type": "Point",
    "coordinates": [
      null,
      null
    ]
  }
},
{
  "restaurantid": 148,
  "Name": "Parinijuuikku  ",
  "JapaneseName": "パリ21区",
  "Station": "Kawaramachi",
  "FirstCategory": "Steak",
  "SecondCategory": "Beer",
  "DinnerPrice": "￥2000～￥2999",
  "LunchPrice": "￥1000～￥1999",
  "TotalRating": 3.15,
  "DinnerRating": 3.06,
  "LunchRating": 3.3,
  "ReviewNum": 45,
  "Lat": 35.0051732085629,
  "Long": 135.766597896551,
  "location": {
    "type": "Point",
    "coordinates": [
      null,
      null
    ]
  }
},
{
  "restaurantid": 149,
  "Name": "ajidokorosamon  ",
  "JapaneseName": "味どころ 佐門",
  "Station": "Sai",
  "FirstCategory": "Izakaya (Tavern)",
  "SecondCategory": "Okinawan Cuisine",
  "DinnerPrice": "￥3000～￥3999",
  "LunchPrice": " ～￥999",
  "TotalRating": 3.05,
  "DinnerRating": 3.04,
  "LunchRating": 3.03,
  "ReviewNum": 2,
  "Lat": 35.0039066692894,
  "Long": 135.734330079148,
  "location": {
    "type": "Point",
    "coordinates": [
      null,
      null
    ]
  }
},
{
  "restaurantid": 150,
  "Name": "Ajidokoroterasaki  ",
  "JapaneseName": "味処てらさき",
  "Station": "Kyoto",
  "FirstCategory": "Kaiseki (Traditional Japanese)",
  "SecondCategory": "Seafood",
  "DinnerPrice": "￥8000～￥9999",
  "LunchPrice": "NA",
  "TotalRating": 3.52,
  "DinnerRating": 3.52,
  "LunchRating": "NA",
  "ReviewNum": 8,
  "Lat": 34.9884436069205,
  "Long": 135.750571386701,
  "location": {
    "type": "Point",
    "coordinates": [
      null,
      null
    ]
  }
},
{
  "restaurantid": 151,
  "Name": "STRADA  ",
  "JapaneseName": "リストランテ ストラーダ",
  "Station": "Kyoto Shiyakusho Mae",
  "FirstCategory": "Italian",
  "SecondCategory": "NA",
  "DinnerPrice": "￥6000～￥7999",
  "LunchPrice": "￥2000～￥2999",
  "TotalRating": 3,
  "DinnerRating": 3.02,
  "LunchRating": 3,
  "ReviewNum": 18,
  "Lat": 35.0111700267108,
  "Long": 135.764283368223,
  "location": {
    "type": "Point",
    "coordinates": [
      null,
      null
    ]
  }
},
{
  "restaurantid": 152,
  "Name": "Nonkitei  ",
  "JapaneseName": "呑寄亭",
  "Station": "Gion Shijo",
  "FirstCategory": "Kappo (Traditional Japanese)",
  "SecondCategory": "Creative cuisine",
  "DinnerPrice": "￥8000～￥9999",
  "LunchPrice": "NA",
  "TotalRating": 3.47,
  "DinnerRating": 3.47,
  "LunchRating": "NA",
  "ReviewNum": 20,
  "Lat": 35.005610543325,
  "Long": 135.775718785592,
  "location": {
    "type": "Point",
    "coordinates": [
      null,
      null
    ]
  }
},
{
  "restaurantid": 153,
  "Name": "kyouryourikaji  ",
  "JapaneseName": "京料理 かじ",
  "Station": "Marutamachi",
  "FirstCategory": "Kyoto Cuisine",
  "SecondCategory": "Kaiseki (Traditional Japanese)",
  "DinnerPrice": "￥8000～￥9999",
  "LunchPrice": "￥5000～￥5999",
  "TotalRating": 3.56,
  "DinnerRating": 3.54,
  "LunchRating": 3.51,
  "ReviewNum": 67,
  "Lat": 35.0172339290037,
  "Long": 135.754474736969,
  "location": {
    "type": "Point",
    "coordinates": [
      null,
      null
    ]
  }
},
{
  "restaurantid": 154,
  "Name": "nikugaumaikafenikkusutokku  ",
  "JapaneseName": "肉が旨いカフェ NICK STOCK 京都リサーチパーク店",
  "Station": "Tambaguchi",
  "FirstCategory": "Cafe",
  "SecondCategory": "Steak",
  "DinnerPrice": "￥2000～￥2999",
  "LunchPrice": "￥1000～￥1999",
  "TotalRating": 3.19,
  "DinnerRating": 3.09,
  "LunchRating": 3.14,
  "ReviewNum": 41,
  "Lat": 34.9955417719794,
  "Long": 135.736694990099,
  "location": {
    "type": "Point",
    "coordinates": [
      null,
      null
    ]
  }
},
{
  "restaurantid": 155,
  "Name": "momojirouichiba  ",
  "JapaneseName": "ももじろう市場 京福北野白梅町駅前店",
  "Station": "Kitano Hakubaicho",
  "FirstCategory": "Izakaya (Tavern)",
  "SecondCategory": "Seafood",
  "DinnerPrice": "￥3000～￥3999",
  "LunchPrice": "NA",
  "TotalRating": 3.05,
  "DinnerRating": 3.05,
  "LunchRating": "NA",
  "ReviewNum": 3,
  "Lat": 35.0271719225443,
  "Long": 135.732265846074,
  "location": {
    "type": "Point",
    "coordinates": [
      null,
      null
    ]
  }
},
{
  "restaurantid": 156,
  "Name": "Waraiya  ",
  "JapaneseName": "笑い屋",
  "Station": "Kawaramachi",
  "FirstCategory": "Izakaya (Tavern)",
  "SecondCategory": "Yakitori (Grilled chicken)",
  "DinnerPrice": "￥4000～￥4999",
  "LunchPrice": "NA",
  "TotalRating": 3.09,
  "DinnerRating": 3.1,
  "LunchRating": "NA",
  "ReviewNum": 27,
  "Lat": 35.0028114876945,
  "Long": 135.764935643338,
  "location": {
    "type": "Point",
    "coordinates": [
      null,
      null
    ]
  }
},
{
  "restaurantid": 157,
  "Name": "Ryouma  ",
  "JapaneseName": "龍馬 三条烏丸",
  "Station": "Karasuma Oike",
  "FirstCategory": "Izakaya (Tavern)",
  "SecondCategory": "Seafood",
  "DinnerPrice": "￥3000～￥3999",
  "LunchPrice": "NA",
  "TotalRating": 3.03,
  "DinnerRating": 3.04,
  "LunchRating": "NA",
  "ReviewNum": 1,
  "Lat": 35.0085699666364,
  "Long": 135.760825441782,
  "location": {
    "type": "Point",
    "coordinates": [
      null,
      null
    ]
  }
},
{
  "restaurantid": 158,
  "Name": "Nihonryouriukihashi  ",
  "JapaneseName": "浮橋",
  "Station": "Kyoto",
  "FirstCategory": "Kaiseki (Traditional Japanese)",
  "SecondCategory": "Kyoto Cuisine",
  "DinnerPrice": "￥8000～￥9999",
  "LunchPrice": "￥3000～￥3999",
  "TotalRating": 3.53,
  "DinnerRating": 3.51,
  "LunchRating": 3.54,
  "ReviewNum": 42,
  "Lat": 34.9860781841528,
  "Long": 135.759591579816,
  "location": {
    "type": "Point",
    "coordinates": [
      null,
      null
    ]
  }
},
{
  "restaurantid": 159,
  "Name": "Sushiyoshino  ",
  "JapaneseName": "寿司吉乃 先斗町",
  "Station": "Sanjo",
  "FirstCategory": "Sushi",
  "SecondCategory": "Kappo (Traditional Japanese)",
  "DinnerPrice": "￥6000～￥7999",
  "LunchPrice": "￥2000～￥2999",
  "TotalRating": 3.06,
  "DinnerRating": 3.06,
  "LunchRating": "NA",
  "ReviewNum": 3,
  "Lat": 35.0081457443705,
  "Long": 135.770947398464,
  "location": {
    "type": "Point",
    "coordinates": [
      null,
      null
    ]
  }
},
{
  "restaurantid": 160,
  "Name": "Tsuneo  ",
  "JapaneseName": "ツネオ",
  "Station": "Gion Shijo",
  "FirstCategory": "Kappo (Traditional Japanese)",
  "SecondCategory": "Wine bar",
  "DinnerPrice": "￥10000～￥14999",
  "LunchPrice": "NA",
  "TotalRating": 3.52,
  "DinnerRating": 3.52,
  "LunchRating": "NA",
  "ReviewNum": 8,
  "Lat": 35.000280609852,
  "Long": 135.778695172693,
  "location": {
    "type": "Point",
    "coordinates": [
      null,
      null
    ]
  }
},
{
  "restaurantid": 161,
  "Name": "KYOTO GATTEN  ",
  "JapaneseName": "酒と肉天ぷら 勝天",
  "Station": "Gion Shijo",
  "FirstCategory": "Tempura",
  "SecondCategory": "Sushi",
  "DinnerPrice": "￥3000～￥3999",
  "LunchPrice": "￥1000～￥1999",
  "TotalRating": 3.09,
  "DinnerRating": 3.06,
  "LunchRating": 3.18,
  "ReviewNum": 11,
  "Lat": 35.0040634027413,
  "Long": 135.770918699917,
  "location": {
    "type": "Point",
    "coordinates": [
      null,
      null
    ]
  }
},
{
  "restaurantid": 162,
  "Name": "Figerasu  ",
  "JapaneseName": "フィゲラス",
  "Station": "Gion Shijo",
  "FirstCategory": "Spain",
  "SecondCategory": "Bar",
  "DinnerPrice": "￥5000～￥5999",
  "LunchPrice": "NA",
  "TotalRating": 3.06,
  "DinnerRating": 3.06,
  "LunchRating": "NA",
  "ReviewNum": 14,
  "Lat": 35.0047133675842,
  "Long": 135.772886006607,
  "location": {
    "type": "Point",
    "coordinates": [
      null,
      null
    ]
  }
},
{
  "restaurantid": 163,
  "Name": "LOTUS  ",
  "JapaneseName": "スモーク＆グリル ロータス",
  "Station": "Shijo",
  "FirstCategory": "Italian",
  "SecondCategory": "Izakaya (Tavern)",
  "DinnerPrice": "￥4000～￥4999",
  "LunchPrice": "NA",
  "TotalRating": 3.42,
  "DinnerRating": 3.42,
  "LunchRating": "NA",
  "ReviewNum": 30,
  "Lat": 35.0042639780311,
  "Long": 135.757373982236,
  "location": {
    "type": "Point",
    "coordinates": [
      null,
      null
    ]
  }
},
{
  "restaurantid": 164,
  "Name": "Saredokafe  ",
  "JapaneseName": "saredoかふぇ",
  "Station": "Kyoto",
  "FirstCategory": "Cafe",
  "SecondCategory": "Crepes",
  "DinnerPrice": "￥1000～￥1999",
  "LunchPrice": "￥1000～￥1999",
  "TotalRating": 3.11,
  "DinnerRating": 3,
  "LunchRating": 3.12,
  "ReviewNum": 21,
  "Lat": 34.9890664307592,
  "Long": 135.757022211173,
  "location": {
    "type": "Point",
    "coordinates": [
      null,
      null
    ]
  }
},
{
  "restaurantid": 165,
  "Name": "Kushinobou  ",
  "JapaneseName": "串の坊 京都駅店",
  "Station": "Kyoto",
  "FirstCategory": "Kushi-age (Fried Skewer)",
  "SecondCategory": "NA",
  "DinnerPrice": "￥4000～￥4999",
  "LunchPrice": "￥1000～￥1999",
  "TotalRating": 3.06,
  "DinnerRating": 3.07,
  "LunchRating": 3,
  "ReviewNum": 22,
  "Lat": 34.98607954286,
  "Long": 135.757872000343,
  "location": {
    "type": "Point",
    "coordinates": [
      null,
      null
    ]
  }
},
{
  "restaurantid": 166,
  "Name": "Kaisendokoroichi  ",
  "JapaneseName": "海鮮処　一",
  "Station": "Karasuma",
  "FirstCategory": "Izakaya (Tavern)",
  "SecondCategory": "Seafood",
  "DinnerPrice": "￥4000～￥4999",
  "LunchPrice": "NA",
  "TotalRating": 3.08,
  "DinnerRating": 3.09,
  "LunchRating": "NA",
  "ReviewNum": 5,
  "Lat": 35.0072254458004,
  "Long": 135.764121618828,
  "location": {
    "type": "Point",
    "coordinates": [
      null,
      null
    ]
  }
},
{
  "restaurantid": 167,
  "Name": "Kyuushuunecchuuya  ",
  "JapaneseName": "九州 熱中屋 四条大宮 LIVE",
  "Station": "Omiya",
  "FirstCategory": "Izakaya (Tavern)",
  "SecondCategory": "Dumplings",
  "DinnerPrice": "￥3000～￥3999",
  "LunchPrice": "NA",
  "TotalRating": 3.08,
  "DinnerRating": 3.09,
  "LunchRating": 3.04,
  "ReviewNum": 12,
  "Lat": 35.0047043374916,
  "Long": 135.74884411481,
  "location": {
    "type": "Point",
    "coordinates": [
      null,
      null
    ]
  }
},
{
  "restaurantid": 168,
  "Name": "Nosutarujia  ",
  "JapaneseName": "ノスタルジア",
  "Station": "Kyoto Shiyakusho Mae",
  "FirstCategory": "Dining bar",
  "SecondCategory": "Italian",
  "DinnerPrice": "￥3000～￥3999",
  "LunchPrice": "NA",
  "TotalRating": 3.04,
  "DinnerRating": 3.04,
  "LunchRating": "NA",
  "ReviewNum": 14,
  "Lat": 35.0100432814247,
  "Long": 135.768785546195,
  "location": {
    "type": "Point",
    "coordinates": [
      null,
      null
    ]
  }
},
{
  "restaurantid": 169,
  "Name": "sakesakanatanagokoro  ",
  "JapaneseName": "酒・肴 タナゴコロ",
  "Station": "Gojo",
  "FirstCategory": "Izakaya (Tavern)",
  "SecondCategory": "Japanese food (other)",
  "DinnerPrice": "￥4000～￥4999",
  "LunchPrice": "NA",
  "TotalRating": 3.06,
  "DinnerRating": 3.06,
  "LunchRating": "NA",
  "ReviewNum": 9,
  "Lat": 34.9977994824742,
  "Long": 135.762570792723,
  "location": {
    "type": "Point",
    "coordinates": [
      null,
      null
    ]
  }
},
{
  "restaurantid": 170,
  "Name": "mo-shondaina-  ",
  "JapaneseName": "MOTION DINER KYOTO",
  "Station": "Kyoto Shiyakusho Mae",
  "FirstCategory": "Cafe",
  "SecondCategory": "Burger",
  "DinnerPrice": "￥2000～￥2999",
  "LunchPrice": "￥1000～￥1999",
  "TotalRating": 3.12,
  "DinnerRating": 3.05,
  "LunchRating": 3.12,
  "ReviewNum": 19,
  "Lat": 35.0079904252289,
  "Long": 135.767628236827,
  "location": {
    "type": "Point",
    "coordinates": [
      null,
      null
    ]
  }
},
{
  "restaurantid": 171,
  "Name": "Sumibikushiyakitsujiya  ",
  "JapaneseName": "つじや 四条御幸町店",
  "Station": "Kawaramachi",
  "FirstCategory": "Yakitori (Grilled chicken)",
  "SecondCategory": "Izakaya (Tavern)",
  "DinnerPrice": "￥3000～￥3999",
  "LunchPrice": "NA",
  "TotalRating": 3.05,
  "DinnerRating": 3.05,
  "LunchRating": "NA",
  "ReviewNum": 10,
  "Lat": 35.0029592732293,
  "Long": 135.766284691163,
  "location": {
    "type": "Point",
    "coordinates": [
      null,
      null
    ]
  }
},
{
  "restaurantid": 172,
  "Name": "Tenshinchashitsu  ",
  "JapaneseName": "點心茶室 京都店",
  "Station": "Kyoto",
  "FirstCategory": "Shanghai Cuisine",
  "SecondCategory": "Cantonese Cuisine",
  "DinnerPrice": "￥3000～￥3999",
  "LunchPrice": "￥1000～￥1999",
  "TotalRating": 3.54,
  "DinnerRating": 3.51,
  "LunchRating": 3.52,
  "ReviewNum": 52,
  "Lat": 34.9858540036173,
  "Long": 135.757424825642,
  "location": {
    "type": "Point",
    "coordinates": [
      null,
      null
    ]
  }
},
{
  "restaurantid": 173,
  "Name": "Haiborubakyoutokarasumaichikyuuniisan  ",
  "JapaneseName": "ハイボールバー京都烏丸1923",
  "Station": "Karasuma",
  "FirstCategory": "Bar",
  "SecondCategory": "Bar",
  "DinnerPrice": "￥2000～￥2999",
  "LunchPrice": "￥2000～￥2999",
  "TotalRating": 3.22,
  "DinnerRating": 3.22,
  "LunchRating": "NA",
  "ReviewNum": 4,
  "Lat": 35.0046028542619,
  "Long": 135.758724410036,
  "location": {
    "type": "Point",
    "coordinates": [
      null,
      null
    ]
  }
},
{
  "restaurantid": 174,
  "Name": "Oumigyuuyakinikumeitokuya  ",
  "JapaneseName": "近江牛焼肉 銘特屋",
  "Station": "Jujo",
  "FirstCategory": "Yakiniku (BBQ Beef)",
  "SecondCategory": "NA",
  "DinnerPrice": "￥4000～￥4999",
  "LunchPrice": "NA",
  "TotalRating": 3,
  "DinnerRating": 3,
  "LunchRating": 3.04,
  "ReviewNum": 2,
  "Lat": 34.9695735185194,
  "Long": 135.757181706528,
  "location": {
    "type": "Point",
    "coordinates": [
      null,
      null
    ]
  }
},
{
  "restaurantid": 175,
  "Name": "Mukadeya  ",
  "JapaneseName": "百足屋 本店",
  "Station": "Karasuma",
  "FirstCategory": "Kyoto Cuisine",
  "SecondCategory": "Japanese food (other)",
  "DinnerPrice": "￥6000～￥7999",
  "LunchPrice": "￥3000～￥3999",
  "TotalRating": 3.07,
  "DinnerRating": 3,
  "LunchRating": 3.08,
  "ReviewNum": 21,
  "Lat": 35.005659231154,
  "Long": 135.756468653259,
  "location": {
    "type": "Point",
    "coordinates": [
      null,
      null
    ]
  }
},
{
  "restaurantid": 176,
  "Name": "Hanagokoro  ",
  "JapaneseName": "花ごころ",
  "Station": "Hanazono",
  "FirstCategory": "Kyoto Cuisine",
  "SecondCategory": "Shojin Cuisine (Buddhist Cuisine)",
  "DinnerPrice": "￥3000～￥3999",
  "LunchPrice": "￥1000～￥1999",
  "TotalRating": 3.08,
  "DinnerRating": 3.09,
  "LunchRating": 3.06,
  "ReviewNum": 11,
  "Lat": 35.0211042512664,
  "Long": 135.721942974391,
  "location": {
    "type": "Point",
    "coordinates": [
      null,
      null
    ]
  }
},
{
  "restaurantid": 177,
  "Name": "Rakuza  ",
  "JapaneseName": "楽坐 京都本店",
  "Station": "Kyoto",
  "FirstCategory": "Izakaya (Tavern)",
  "SecondCategory": "Seafood",
  "DinnerPrice": "￥4000～￥4999",
  "LunchPrice": "NA",
  "TotalRating": 3.22,
  "DinnerRating": 3.22,
  "LunchRating": "NA",
  "ReviewNum": 29,
  "Lat": 34.988146543692,
  "Long": 135.75785468439,
  "location": {
    "type": "Point",
    "coordinates": [
      null,
      null
    ]
  }
},
{
  "restaurantid": 178,
  "Name": "Monakadou  ",
  "JapaneseName": "もなか堂",
  "Station": "Kawaramachi",
  "FirstCategory": "Izakaya (Tavern)",
  "SecondCategory": "Creative cuisine",
  "DinnerPrice": "￥3000～￥3999",
  "LunchPrice": "NA",
  "TotalRating": 3.07,
  "DinnerRating": 3.08,
  "LunchRating": "NA",
  "ReviewNum": 10,
  "Lat": 35.0046222883179,
  "Long": 135.769911094623,
  "location": {
    "type": "Point",
    "coordinates": [
      null,
      null
    ]
  }
},
{
  "restaurantid": 179,
  "Name": "kyoutoayanokoujimangetsunohana  ",
  "JapaneseName": "京都綾小路 満月の花",
  "Station": "Karasuma",
  "FirstCategory": "Sweets",
  "SecondCategory": "Japanese food (other)",
  "DinnerPrice": "￥2000～￥2999",
  "LunchPrice": " ～￥999",
  "TotalRating": 3.26,
  "DinnerRating": 3.09,
  "LunchRating": 3.21,
  "ReviewNum": 26,
  "Lat": 35.0025617701124,
  "Long": 135.763672148658,
  "location": {
    "type": "Point",
    "coordinates": [
      null,
      null
    ]
  }
},
{
  "restaurantid": 180,
  "Name": "shunsaibaruiberiko  ",
  "JapaneseName": "旬彩バル イベリコ",
  "Station": "Sanjo",
  "FirstCategory": "Dining bar",
  "SecondCategory": "Creative cuisine",
  "DinnerPrice": "￥3000～￥3999",
  "LunchPrice": "NA",
  "TotalRating": 3.05,
  "DinnerRating": 3.05,
  "LunchRating": "NA",
  "ReviewNum": 4,
  "Lat": 35.0075957803491,
  "Long": 135.769639476852,
  "location": {
    "type": "Point",
    "coordinates": [
      null,
      null
    ]
  }
},
{
  "restaurantid": 181,
  "Name": "Ikiikiudon  ",
  "JapaneseName": "いきいきうどん 京都店",
  "Station": "Karasuma Oike",
  "FirstCategory": "Udon",
  "SecondCategory": "Japanese food (other)",
  "DinnerPrice": " ～￥999",
  "LunchPrice": " ～￥999",
  "TotalRating": 3.18,
  "DinnerRating": 3.09,
  "LunchRating": 3.14,
  "ReviewNum": 47,
  "Lat": 35.0112104746148,
  "Long": 135.758368024296,
  "location": {
    "type": "Point",
    "coordinates": [
      null,
      null
    ]
  }
},
{
  "restaurantid": 182,
  "Name": "zasera-kyouto  ",
  "JapaneseName": "The Cellar KYOTO",
  "Station": "Kyoto Shiyakusho Mae",
  "FirstCategory": "Dining bar",
  "SecondCategory": "Kappo (Traditional Japanese)",
  "DinnerPrice": "￥6000～￥7999",
  "LunchPrice": "NA",
  "TotalRating": 3.05,
  "DinnerRating": 3.05,
  "LunchRating": "NA",
  "ReviewNum": 2,
  "Lat": 35.0093689200271,
  "Long": 135.769410525339,
  "location": {
    "type": "Point",
    "coordinates": [
      null,
      null
    ]
  }
},
{
  "restaurantid": 183,
  "Name": "Daikokuebisu  ",
  "JapaneseName": "大黒戎",
  "Station": "Saiin",
  "FirstCategory": "Yakiniku (BBQ Beef)",
  "SecondCategory": "Korean cuisine",
  "DinnerPrice": "￥4000～￥4999",
  "LunchPrice": "NA",
  "TotalRating": 3.06,
  "DinnerRating": 3.06,
  "LunchRating": "NA",
  "ReviewNum": 15,
  "Lat": 35.0033844419695,
  "Long": 135.73084039301,
  "location": {
    "type": "Point",
    "coordinates": [
      null,
      null
    ]
  }
},
{
  "restaurantid": 184,
  "Name": "kaitoshirowainnobarukakimaru  ",
  "JapaneseName": "貝と白ワインのバル KAKIMARU 七条店",
  "Station": "Kyoto",
  "FirstCategory": "Bar",
  "SecondCategory": "Italian",
  "DinnerPrice": "￥3000～￥3999",
  "LunchPrice": "NA",
  "TotalRating": 3,
  "DinnerRating": 3,
  "LunchRating": "NA",
  "ReviewNum": 8,
  "Lat": 34.9893858083232,
  "Long": 135.755149018704,
  "location": {
    "type": "Point",
    "coordinates": [
      null,
      null
    ]
  }
},
{
  "restaurantid": 185,
  "Name": "chisouyouga  ",
  "JapaneseName": "馳走 陽雅",
  "Station": "Gojo",
  "FirstCategory": "Kaiseki (Traditional Japanese)",
  "SecondCategory": "Kyoto Cuisine",
  "DinnerPrice": "￥10000～￥14999",
  "LunchPrice": "￥6000～￥7999",
  "TotalRating": 3.63,
  "DinnerRating": 3.61,
  "LunchRating": 3.51,
  "ReviewNum": 8,
  "Lat": 34.9940370483543,
  "Long": 135.759205967623,
  "location": {
    "type": "Point",
    "coordinates": [
      null,
      null
    ]
  }
},
{
  "restaurantid": 186,
  "Name": "Kushiyamonogatari  ",
  "JapaneseName": "串家物語 京都ヨドバシ店",
  "Station": "Kyoto",
  "FirstCategory": "Kushi-age (Fried Skewer)",
  "SecondCategory": "Izakaya (Tavern)",
  "DinnerPrice": "￥2000～￥2999",
  "LunchPrice": "￥1000～￥1999",
  "TotalRating": 3,
  "DinnerRating": 3,
  "LunchRating": 3.01,
  "ReviewNum": 14,
  "Lat": 34.9881307373069,
  "Long": 135.759300676139,
  "location": {
    "type": "Point",
    "coordinates": [
      null,
      null
    ]
  }
},
{
  "restaurantid": 187,
  "Name": "nihonshubarujinsuke  ",
  "JapaneseName": "日本酒バル JINSUKE",
  "Station": "Karasuma",
  "FirstCategory": "Izakaya (Tavern)",
  "SecondCategory": "Seafood",
  "DinnerPrice": "￥3000～￥3999",
  "LunchPrice": "NA",
  "TotalRating": 3.05,
  "DinnerRating": 3.05,
  "LunchRating": "NA",
  "ReviewNum": 8,
  "Lat": 35.0026117668848,
  "Long": 135.763793525165,
  "location": {
    "type": "Point",
    "coordinates": [
      null,
      null
    ]
  }
},
{
  "restaurantid": 188,
  "Name": "Hanatanuki  ",
  "JapaneseName": "花たぬき 御池店",
  "Station": "Nishioji Oike",
  "FirstCategory": "Izakaya (Tavern)",
  "SecondCategory": "Okonomiyaki",
  "DinnerPrice": "￥3000～￥3999",
  "LunchPrice": "NA",
  "TotalRating": 3.01,
  "DinnerRating": 3.01,
  "LunchRating": "NA",
  "ReviewNum": 11,
  "Lat": 35.011192518789,
  "Long": 135.732162145963,
  "location": {
    "type": "Point",
    "coordinates": [
      null,
      null
    ]
  }
},
{
  "restaurantid": 189,
  "Name": "izakayaba-shiba  ",
  "JapaneseName": "居酒屋BAR SIBA",
  "Station": "Gion Shijo",
  "FirstCategory": "Izakaya (Tavern)",
  "SecondCategory": "Japanese food (other)",
  "DinnerPrice": "￥3000～￥3999",
  "LunchPrice": "NA",
  "TotalRating": 3.03,
  "DinnerRating": 3.03,
  "LunchRating": "NA",
  "ReviewNum": 2,
  "Lat": 35.0048497374475,
  "Long": 135.772631854769,
  "location": {
    "type": "Point",
    "coordinates": [
      null,
      null
    ]
  }
},
{
  "restaurantid": 190,
  "Name": "Satsumagokamon  ",
  "JapaneseName": "薩摩ごかもん 京都四条烏丸本店",
  "Station": "Karasuma",
  "FirstCategory": "Izakaya (Tavern)",
  "SecondCategory": "Sukiyaki",
  "DinnerPrice": "￥3000～￥3999",
  "LunchPrice": " ～￥999",
  "TotalRating": 3.07,
  "DinnerRating": 3.09,
  "LunchRating": 3,
  "ReviewNum": 27,
  "Lat": 35.0040723797291,
  "Long": 135.760114596783,
  "location": {
    "type": "Point",
    "coordinates": [
      null,
      null
    ]
  }
},
{
  "restaurantid": 191,
  "Name": "Kyoutoyamanashiyakitorikanazawa  ",
  "JapaneseName": "京都山科 焼鳥 かなざわ",
  "Station": "Keihan Yamashina",
  "FirstCategory": "Izakaya (Tavern)",
  "SecondCategory": "Yakitori (Grilled chicken)",
  "DinnerPrice": "￥3000～￥3999",
  "LunchPrice": "NA",
  "TotalRating": 3.06,
  "DinnerRating": 3.06,
  "LunchRating": "NA",
  "ReviewNum": 36,
  "Lat": 34.9913314236335,
  "Long": 135.818192026742,
  "location": {
    "type": "Point",
    "coordinates": [
      null,
      null
    ]
  }
},
{
  "restaurantid": 192,
  "Name": "Himiko  ",
  "JapaneseName": "卑弥呼 舞鶴",
  "Station": "Higashi Maizuru",
  "FirstCategory": "Izakaya (Tavern)",
  "SecondCategory": "Seafood",
  "DinnerPrice": "￥4000～￥4999",
  "LunchPrice": "￥1000～￥1999",
  "TotalRating": 3.12,
  "DinnerRating": 3.08,
  "LunchRating": 3.21,
  "ReviewNum": 29,
  "Lat": 35.4756594489946,
  "Long": 135.394954321689,
  "location": {
    "type": "Point",
    "coordinates": [
      null,
      null
    ]
  }
},
{
  "restaurantid": 193,
  "Name": "koshitsuichiammasamunebettei  ",
  "JapaneseName": "個室 一庵正宗 別邸 京都木屋町店 ",
  "Station": "Gion Shijo",
  "FirstCategory": "Izakaya (Tavern)",
  "SecondCategory": "Dining bar",
  "DinnerPrice": "￥2000～￥2999",
  "LunchPrice": "￥2000～￥2999",
  "TotalRating": 3.06,
  "DinnerRating": 3.06,
  "LunchRating": "NA",
  "ReviewNum": 2,
  "Lat": 35.0048052648707,
  "Long": 135.770748957635,
  "location": {
    "type": "Point",
    "coordinates": [
      null,
      null
    ]
  }
},
{
  "restaurantid": 194,
  "Name": "CHULETA  ",
  "JapaneseName": "チュレタ",
  "Station": "Gion Shijo",
  "FirstCategory": "Spain",
  "SecondCategory": "Bar",
  "DinnerPrice": "￥5000～￥5999",
  "LunchPrice": "￥1000～￥1999",
  "TotalRating": 3.58,
  "DinnerRating": 3.58,
  "LunchRating": 3.06,
  "ReviewNum": 24,
  "Lat": 35.004132038915,
  "Long": 135.772773820467,
  "location": {
    "type": "Point",
    "coordinates": [
      null,
      null
    ]
  }
},
{
  "restaurantid": 195,
  "Name": "GRILL&PUB The NICK STOCK  ",
  "JapaneseName": "GRILL&PUB The NICK STOCK 三条河原町店",
  "Station": "Sanjo",
  "FirstCategory": "Steak",
  "SecondCategory": "Bar",
  "DinnerPrice": "￥2000～￥2999",
  "LunchPrice": "￥1000～￥1999",
  "TotalRating": 3,
  "DinnerRating": 3.06,
  "LunchRating": 3,
  "ReviewNum": 19,
  "Lat": 35.008732885782,
  "Long": 135.769916345949,
  "location": {
    "type": "Point",
    "coordinates": [
      null,
      null
    ]
  }
},
{
  "restaurantid": 196,
  "Name": "Choushuuryourikyoumon  ",
  "JapaneseName": "町衆料理 京もん",
  "Station": "Sanjo",
  "FirstCategory": "Kyoto Cuisine",
  "SecondCategory": "Kaiseki (Traditional Japanese)",
  "DinnerPrice": "￥5000～￥5999",
  "LunchPrice": "￥2000～￥2999",
  "TotalRating": 3.07,
  "DinnerRating": 3.08,
  "LunchRating": "NA",
  "ReviewNum": 34,
  "Lat": 35.0092956151734,
  "Long": 135.770592097252,
  "location": {
    "type": "Point",
    "coordinates": [
      null,
      null
    ]
  }
},
{
  "restaurantid": 197,
  "Name": "Brochette  ",
  "JapaneseName": "ブロシェット",
  "Station": "Karasuma Oike",
  "FirstCategory": "Western (Others)",
  "SecondCategory": "French",
  "DinnerPrice": "￥3000～￥3999",
  "LunchPrice": "￥1000～￥1999",
  "TotalRating": 3.55,
  "DinnerRating": 3.54,
  "LunchRating": 3.51,
  "ReviewNum": 44,
  "Lat": 35.0103900554259,
  "Long": 135.761151164263,
  "location": {
    "type": "Point",
    "coordinates": [
      null,
      null
    ]
  }
},
{
  "restaurantid": 198,
  "Name": "Ilifune  ",
  "JapaneseName": "ilifune",
  "Station": "Jingu Marutamachi",
  "FirstCategory": "Dining bar",
  "SecondCategory": "Italian",
  "DinnerPrice": "￥3000～￥3999",
  "LunchPrice": "NA",
  "TotalRating": 3.06,
  "DinnerRating": 3.06,
  "LunchRating": "NA",
  "ReviewNum": 1,
  "Lat": 35.0167886687495,
  "Long": 135.768654135428,
  "location": {
    "type": "Point",
    "coordinates": [
      null,
      null
    ]
  }
},
{
  "restaurantid": 199,
  "Name": "Satsuki  ",
  "JapaneseName": "さつき",
  "Station": "Kyoto Shiyakusho Mae",
  "FirstCategory": "Kyoto Cuisine",
  "SecondCategory": "Kaiseki (Traditional Japanese)",
  "DinnerPrice": "￥10000～￥14999",
  "LunchPrice": "NA",
  "TotalRating": 3.51,
  "DinnerRating": 3.51,
  "LunchRating": "NA",
  "ReviewNum": 5,
  "Lat": 35.0118947848042,
  "Long": 135.770775017945,
  "location": {
    "type": "Point",
    "coordinates": [
      null,
      null
    ]
  }
},
{
  "restaurantid": 200,
  "Name": "Kaitoshirowainnobarukakimaru  ",
  "JapaneseName": "貝と白ワインのバル KAKIMARU 西院店",
  "Station": "Saiin",
  "FirstCategory": "Bar",
  "SecondCategory": "Izakaya (Tavern)",
  "DinnerPrice": "￥3000～￥3999",
  "LunchPrice": "NA",
  "TotalRating": 3.04,
  "DinnerRating": 3.04,
  "LunchRating": "NA",
  "ReviewNum": 3,
  "Lat": 35.0023837266776,
  "Long": 135.731470386764,
  "location": {
    "type": "Point",
    "coordinates": [
      null,
      null
    ]
  }
},
{
  "restaurantid": 201,
  "Name": "Sandaimetorimero  ",
  "JapaneseName": "三代目 鳥メロ 四条烏丸店",
  "Station": "Shijo",
  "FirstCategory": "Izakaya (Tavern)",
  "SecondCategory": "Yakitori (Grilled chicken)",
  "DinnerPrice": "￥2000～￥2999",
  "LunchPrice": "NA",
  "TotalRating": 3,
  "DinnerRating": 3,
  "LunchRating": "NA",
  "ReviewNum": 2,
  "Lat": 35.0039504023623,
  "Long": 135.757482876519,
  "location": {
    "type": "Point",
    "coordinates": [
      null,
      null
    ]
  }
},
{
  "restaurantid": 202,
  "Name": "Furenchibado  ",
  "JapaneseName": "フレンチバード",
  "Station": "Kyoto Shiyakusho Mae",
  "FirstCategory": "French",
  "SecondCategory": "Bistro",
  "DinnerPrice": "￥4000～￥4999",
  "LunchPrice": "￥1000～￥1999",
  "TotalRating": 3.06,
  "DinnerRating": 3.06,
  "LunchRating": "NA",
  "ReviewNum": 11,
  "Lat": 35.0136922748397,
  "Long": 135.765308722494,
  "location": {
    "type": "Point",
    "coordinates": [
      null,
      null
    ]
  }
},
{
  "restaurantid": 203,
  "Name": "BISTRO BAR A VIN  C  ",
  "JapaneseName": "ビストロ セー",
  "Station": "Shijo",
  "FirstCategory": "Bistro",
  "SecondCategory": "Seafood",
  "DinnerPrice": "￥2000～￥2999",
  "LunchPrice": "￥3000～￥3999",
  "TotalRating": 3.51,
  "DinnerRating": 3.51,
  "LunchRating": 3.1,
  "ReviewNum": 49,
  "Lat": 35.0013962432629,
  "Long": 135.758178491902,
  "location": {
    "type": "Point",
    "coordinates": [
      null,
      null
    ]
  }
},
{
  "restaurantid": 204,
  "Name": "Figerasu  ",
  "JapaneseName": "フィゲラス 烏丸店",
  "Station": "Karasuma",
  "FirstCategory": "Spain",
  "SecondCategory": "Bar",
  "DinnerPrice": "￥3000～￥3999",
  "LunchPrice": "NA",
  "TotalRating": 3.04,
  "DinnerRating": 3,
  "LunchRating": 3.06,
  "ReviewNum": 11,
  "Lat": 35.0062093790221,
  "Long": 135.760437804883,
  "location": {
    "type": "Point",
    "coordinates": [
      null,
      null
    ]
  }
},
{
  "restaurantid": 205,
  "Name": "Sorekaraayanokouji  ",
  "JapaneseName": "それから 綾小路",
  "Station": "Shijo",
  "FirstCategory": "Izakaya (Tavern)",
  "SecondCategory": "Japanese food (other)",
  "DinnerPrice": "￥4000～￥4999",
  "LunchPrice": "NA",
  "TotalRating": 3,
  "DinnerRating": 3,
  "LunchRating": "NA",
  "ReviewNum": 10,
  "Lat": 35.0024459092234,
  "Long": 135.761385121707,
  "location": {
    "type": "Point",
    "coordinates": [
      null,
      null
    ]
  }
},
{
  "restaurantid": 206,
  "Name": "nikugaumaikafenikkusutokku  ",
  "JapaneseName": "肉が旨いカフェ NICK STOCK イオンモールKYOTO店",
  "Station": "Toji",
  "FirstCategory": "Cafe",
  "SecondCategory": "Steak",
  "DinnerPrice": "￥1000～￥1999",
  "LunchPrice": "￥1000～￥1999",
  "TotalRating": 3.19,
  "DinnerRating": 3.11,
  "LunchRating": 3.09,
  "ReviewNum": 17,
  "Lat": 34.9831039778838,
  "Long": 135.755014596872,
  "location": {
    "type": "Point",
    "coordinates": [
      null,
      null
    ]
  }
},